id,latitude,longitude,status,place_name,address,description,radius,allow_parking,allow_deployment,current_occupancy,vehicle_types,min_deployment_cap,min_reason,max_deployment_cap,max_parking_cap,threshold,pin_type,image_url,downstream_revenue
URTYKPI2EIQSW,35.737876,139.707905,active,池袋4丁目ポート,東京都豊島区池袋4-8-3,"",15.0,true,true,1,scooter,0,"",1,2,1,standard,https://limebike-web-public-assets.s3-us-west-1.amazonaws.com/placement_pins/UPXKVAJZIAD4EVQK,0.2049
NIIEXM3CILJMC,35.653433,139.707141,active,HOTEL GRAPHY 渋谷,東京都渋谷区東1-29-3,"",15.0,true,true,1,scooter,0,"",1,2,1,standard,https://limebike-web-public-assets.s3-us-west-1.amazonaws.com/placement_pins/E7W4P7VB5DM45X4F,1.452849
6URJVTKHTKVXG,35.733934,139.718622,active,東池袋2丁目ポート,東京都豊島区東池袋2-59-3,入り口すぐに1台と、奥エントランス前に1台ずつスペースがあります。,15.0,true,true,2,scooter,0,"",1,2,2,standard,https://limebike-web-public-assets.s3-us-west-1.amazonaws.com/placement_pins/7IIWMK6DNNAGVYFK,1.186362
XB2NYV3DXINBC,35.649132,139.704847,active,渋谷SGビル,東京都渋谷区恵比寿西2-19-9,地下駐車場内の1室がポートになっております。,20.0,true,true,4,scooter,10,gr,10,29,27,standard,https://limebike-web-public-assets.s3-us-west-1.amazonaws.com/placement_pins/CR4GJTSP4THBM3YL,0.236332
NMVVCGHISVCXY,35.654791,139.708002,active,常盤松72ビル,東京都渋谷区東1-24-8,"",20.0,true,true,5,scooter,1,golden,4,7,7,standard,https://limebike-web-public-assets.s3-us-west-1.amazonaws.com/placement_pins/SX6HF76OUIZUKFAN,1.864932
B7NUGFI2AG7JR,35.733664,139.698359,active,クラスタービル2,東京都豊島区要町1-10-3,自動販売機横の門から入ったところに11台分のスペースがあります。,15.0,true,true,4,scooter,0,"",6,11,9,standard,https://limebike-web-public-assets.s3-us-west-1.amazonaws.com/placement_pins/7PYRWCA7KSXNJHVC,0.0
VFFV6A62V4G7U,35.698075,139.697279,active,シンフォニー北新宿の杜,東京都新宿区北新宿1-1-1,マンション入ってすぐ右側、道路沿い自動販売機の裏にあります。,40.0,true,true,5,scooter,7,gr,7,14,12,standard,https://limebike-web-public-assets.s3.us-west-1.amazonaws.com/placement_pins/BJB3LUTJW57MKCSE,2.476958
TZM7P2YLPITLC,35.727446,139.690519,active,レナジア長崎,東京都豊島区長崎2-4-13,"",15.0,true,true,1,scooter,0,"",1,2,1,standard,https://limebike-web-public-assets.s3-us-west-1.amazonaws.com/placement_pins/UXUM4WRZ3G57OWAR,0.0
43Z2GYUACSFKE,35.736621,139.708982,active,アポロ池袋ビル,東京都豊島区池袋4-1-7,自動販売機裏、駐輪場手間にあります。,15.0,true,true,2,scooter,0,"",2,3,3,standard,https://limebike-web-public-assets.s3-us-west-1.amazonaws.com/placement_pins/CBM63H42DZPEQIMU,0.0
UM66SFBNPQQCZ,35.699219,139.704464,active,クリエイティブ新宿,東京都新宿区大久保1-11-21,"",20.0,true,true,0,scooter,0,"",2,3,3,standard,https://limebike-web-public-assets.s3-us-west-1.amazonaws.com/placement_pins/2EJEVPFJRWIDJZBD,4.374575
UORRSP6YGW4O3,35.68567,139.685806,active,センチュリーシティ,東京都新宿区西新宿4-39-26,2台分と1台分にわかれています。,15.0,true,true,3,scooter,0,"",2,4,2,standard,https://limebike-web-public-assets.s3-us-west-1.amazonaws.com/placement_pins/R4SPTJRBGNETAHGM,0.452651
2ORH6LADORY7Z,35.644084,139.662996,active,若林1丁目ポート,東京都世田谷区若林1-8-12,"",15.0,true,true,1,scooter,0,"",1,2,1,standard,https://limebike-web-public-assets.s3-us-west-1.amazonaws.com/placement_pins/PU35CR65DT5YZABB,0.0
6TRUWZM5BYHKO,35.682354,139.680611,active,本町6丁目駐輪場,東京都渋谷区本町6-1-21,"",15.0,true,true,7,scooter,0,"",4,7,6,standard,https://limebike-web-public-assets.s3-us-west-1.amazonaws.com/placement_pins/7HF4RGGJQ3RBYBL7,0.394896
7VPDMSZJMHGOK,35.636336,139.692217,active,祐天寺2丁目ポート1,東京都目黒区祐天寺2-10-7,"",15.0,true,true,4,scooter,0,"",2,4,4,standard,https://limebike-web-public-assets.s3.us-west-1.amazonaws.com/placement_pins/T2NZ7DGHFJ34RGHV,0.683153
PE7XFIZTL5G6W,35.619872,139.644294,active,ルセーヌ用賀,東京都世田谷区中町5-2-9,"",15.0,true,true,5,scooter,0,"",3,6,5,standard,https://limebike-web-public-assets.s3-us-west-1.amazonaws.com/placement_pins/TISVE3X4POMQKQPL,0.0
OSQI5C37II2RX,35.656417,139.661161,active,代田シェアハウス,東京都世田谷区代田2-16-8,"",15.0,true,true,0,scooter,0,"",3,6,5,standard,https://limebike-web-public-assets.s3-us-west-1.amazonaws.com/placement_pins/6AH7BFPAFEOIFVHC,0.0
RX5MKSK4SGQ7A,35.650661,139.665747,active,椿代荘,東京都世田谷区代沢4-7-5,"",15.0,true,true,11,scooter,0,"",8,16,14,standard,https://limebike-web-public-assets.s3-us-west-1.amazonaws.com/placement_pins/DVKCLEO57R7JDCMA,0.0
ZXZS45IYXZXMI,35.691348,139.726156,active,四谷坂町11丁目ポート,東京都新宿区四谷坂町11-21,左に6台、右に４台分のポートがあります。,30.0,true,true,6,scooter,0,"",5,10,9,standard,https://limebike-web-public-assets.s3-us-west-1.amazonaws.com/placement_pins/LOX6ZJRK47UZRJNG,1.54203
C6UBUB2BYA4RW,35.656894,139.701234,active,andGOLF渋谷店,東京都渋谷区桜丘町16-13大和田第一ビル,"",50.0,true,true,3,scooter,7,gr,7,8,8,standard,https://limebike-web-public-assets.s3-us-west-1.amazonaws.com/placement_pins/BOFYF4HQAO626ZTM,4.936075
WTKUFSMFBMRF4,35.739159,139.726077,active,西巣鴨1丁目ポート,東京都豊島区西巣鴨1-35-2,"",15.0,true,true,5,scooter,0,"",6,11,7,standard,https://limebike-web-public-assets.s3-us-west-1.amazonaws.com/placement_pins/3BBHDPRZDOOTVEP4,0.302715
S5O4VJKMCRR47,35.664019,139.661481,active,アゼリア弐番館,東京都世田谷区代田6-29-14,"",15.0,true,true,3,scooter,0,"",3,6,5,standard,https://limebike-web-public-assets.s3-us-west-1.amazonaws.com/placement_pins/PSXD3R7ACNCYVCLM,0.907703
UQGPNTGE5EV3M,35.640606,139.68792,active,上目黒４丁目ポート,東京都目黒区上目黒4-41-5,"",15.0,true,true,4,scooter,1,golden,5,10,9,standard,https://limebike-web-public-assets.s3-us-west-1.amazonaws.com/placement_pins/S4K5TP72DN4VTNPY,0.404405
MUE6VTBXAPYVA,35.729578,139.731986,active,南大塚1丁目ポート,東京都豊島区南大塚1-48-16,"",15.0,true,true,6,scooter,0,"",5,10,5,standard,https://limebike-web-public-assets.s3-us-west-1.amazonaws.com/placement_pins/VB4GKZHLWMUWNNXN,0.486104
CQ3OHVK2XCDAQ,35.688681,139.673044,active,ヴェルフローレ,東京都中野区弥生町4-5-7,"",40.0,true,true,2,scooter,0,"",2,3,2,standard,https://limebike-web-public-assets.s3-us-west-1.amazonaws.com/placement_pins/FBJ6NPFSOLWLCXMC,1.30418
UDQHJJN6OGELF,35.670349,139.708271,active,神宮前3丁目ポート,東京都渋谷区神宮前3-20-3,"",20.0,true,true,2,scooter,1,gr,1,2,1,standard,https://limebike-web-public-assets.s3-us-west-1.amazonaws.com/placement_pins/AKNSUI4FEXJ7AVKV,0.354895
4HSVQAERUVNR7,35.700824,139.70182,active,シンフォニー百人町の杜,東京都新宿区百人町1-4-20,"",20.0,true,true,3,scooter,1,golden,2,4,4,standard,https://limebike-web-public-assets.s3-us-west-1.amazonaws.com/placement_pins/BE65YCFMVGNQWI4R,2.762036
VVIMJOCMMC7OI,35.626995,139.672172,active,柿の木坂3丁目ポート,東京都目黒区柿の木坂3-8-17,"",15.0,true,true,3,scooter,4,gr,4,8,8,standard,https://d1r9t42himsgro.cloudfront.net/juicer-deploy-photos/DPVSYGXTXRYM7/2024-08-18/LKORHOISCR2QP.jpeg,0.857806
SAEHBWFMHPD35,35.733563,139.698337,active,クラスタービル①,東京都豊島区要町1-10-3,7台分と4台分の駐輪スペースがあります。,15.0,true,true,10,scooter,0,"",10,16,14,standard,https://limebike-web-public-assets.s3-us-west-1.amazonaws.com/placement_pins/DMI7AUPT5WVBJ4YY,0.106473
ZLVR3UT4KHV6N,35.649901,139.700021,active,代官山T-SITE,東京都渋谷区猿楽町16-15,"",15.0,true,true,0,scooter,1,golden,2,3,2,standard,https://limebike-web-public-assets.s3-us-west-1.amazonaws.com/placement_pins/AZUU7NNF4U75RR22,2.403531
N6S6FZE3K7Y4T,35.727413,139.70861,active,池袋KTビル,東京都豊島区西池袋2-29-19,"",20.0,true,true,5,scooter,7,gr,7,10,9,standard,https://limebike-web-public-assets.s3-us-west-1.amazonaws.com/placement_pins/UWTWGFF5VOHFX6SM,2.025294
AHTZ6JGXV6FCZ,35.683628,139.692399,active,代々木3丁目ポート,東京都渋谷区代々木3-28-2,"",15.0,true,true,0,scooter,0,"",1,2,1,standard,https://limebike-web-public-assets.s3-us-west-1.amazonaws.com/placement_pins/C7OPESZKVYZTKHE4,0.0
URPA6OCZ2IG6A,35.73315,139.696513,active,KANAME WARPS 1,東京都豊島区要町1-3-11,"",15.0,true,true,6,scooter,0,"",7,13,7,standard,https://limebike-web-public-assets.s3-us-west-1.amazonaws.com/placement_pins/FPMP6UD3PU7ZQUXW,0.0
QNWJUYZAOGFJD,35.677687,139.669274,active,ザスタンダードアパートメントB,東京都渋谷区笹塚3-8-2,"",15.0,true,true,0,scooter,0,"",6,12,10,standard,https://limebike-web-public-assets.s3-us-west-1.amazonaws.com/placement_pins/ZAET5NF3SJVJFNXN,0.903558
TLFKLY5YLNP6X,35.700476,139.687534,active,ボワシャトレ2,東京都中野区中央1-12-3,"",15.0,true,true,2,scooter,0,"",6,11,9,standard,https://limebike-web-public-assets.s3-us-west-1.amazonaws.com/placement_pins/PWL47HNNGYBVTE65,1.537516
46HY3UK42GJIZ,35.70057,139.657504,active,ベルハイム高円寺南,東京都杉並区高円寺南1-21-7,"",15.0,true,true,0,scooter,0,"",1,2,1,standard,https://limebike-web-public-assets.s3-us-west-1.amazonaws.com/placement_pins/K4PMOERVNIINCCSH,0.0
ICI3ZYGKRA5ER,35.727417,139.704924,active,フロイデ目白バイク置き場,東京都豊島区西池袋2-12-9,"",25.0,true,true,3,scooter,0,"",2,4,3,standard,https://limebike-web-public-assets.s3.us-west-1.amazonaws.com/placement_pins/ZCODK7C7XZLVQM24,0.248411
LCH3J6UFUM7DX,35.693544,139.67262,active,ボルテックス中野本町,東京都中野区本町5-16-6,"",15.0,true,true,2,scooter,0,"",8,19,16,standard,https://limebike-web-public-assets.s3-us-west-1.amazonaws.com/placement_pins/J5VKJFYFFTXNOHJT,0.94976
YBCRYK6X4MF4P,35.689951,139.727837,active,新宿四谷坂町3ポート,東京都新宿区四谷坂町3-16,"",15.0,true,true,1,scooter,0,"",1,2,1,standard,https://limebike-web-public-assets.s3-us-west-1.amazonaws.com/placement_pins/WR5B3QZQBCZRRBV3,0.06334
EJSJWOHNRNCZL,35.669908,139.670173,active,岡田設計事務所,東京都世田谷区北沢5-19-11,"",15.0,true,true,1,scooter,0,"",1,2,1,standard,https://limebike-web-public-assets.s3-us-west-1.amazonaws.com/placement_pins/2PXLKCYIFIJA43WH,0.0
VRKEFDQGJAJWA,35.700145,139.703751,active,プレシュード新宿,東京都新宿区大久保1-14-7,"",15.0,true,true,0,scooter,1,golden,8,16,14,standard,https://limebike-web-public-assets.s3-us-west-1.amazonaws.com/placement_pins/M4DCHAI47SZAXA42,2.168392
SL4PTCDGW6F3H,35.730528,139.798952,active,HOTEL 丸忠 CENTRO,東京都荒川区南千住3-2-2,"",15.0,true,true,6,scooter,0,"",3,6,5,standard,https://limebike-web-public-assets.s3-us-west-1.amazonaws.com/placement_pins/3PJTTINIYBDS5H3B,0.380858
UAEOS5QPVCWMW,35.72898,139.801226,active,HOTEL 丸忠 CLASSICO,東京都台東区清川2-37-7,"",15.0,true,true,6,scooter,5,gr,5,10,5,standard,https://limebike-web-public-assets.s3-us-west-1.amazonaws.com/placement_pins/4RVECRB7MW55WK3T,0.87144
W4N3ZMR2EYKIW,35.716532,139.782065,active,Hiromas Hostel in Ueno,東京都台東区北上野1-3-5,"",15.0,true,true,1,scooter,2,gr,2,3,2,standard,https://limebike-web-public-assets.s3-us-west-1.amazonaws.com/placement_pins/ARH2C4PYZFFDLWEF,1.173244
GG3JDJ553GF25,35.705222,139.812499,active,コートハウスマリエ,東京都墨田区横川2-17-6,"",15.0,true,true,2,scooter,0,"",2,4,3,standard,https://limebike-web-public-assets.s3-us-west-1.amazonaws.com/placement_pins/NH7ABCV34XLGZLIU,0.0
ZFZYZYYKEIBQL,35.702732,139.799781,active,コーポ吉田2,東京都墨田区本所1-12-10,"",15.0,true,true,2,scooter,0,"",1,2,1,standard,https://limebike-web-public-assets.s3-us-west-1.amazonaws.com/placement_pins/73PATQSN3B7WB4DO,0.917237
7RFJ6Y7WSNWSV,35.709296,139.802566,active,吾妻橋動物病院,東京都墨田区吾妻橋2-5-4,"",20.0,true,true,8,scooter,6,gr,6,8,7,standard,https://limebike-web-public-assets.s3-us-west-1.amazonaws.com/placement_pins/LMHBLQAKAWORQEF2,0.606428
FGXMS6IFS6PR7,35.717994,139.782109,active,Hotel Comfact,東京都台東区下谷1-3-11,"",15.0,true,true,3,scooter,0,"",2,4,3,standard,https://limebike-web-public-assets.s3-us-west-1.amazonaws.com/placement_pins/S4YG4GCCHJ7UDLG3,0.879859
SSYQJW5PXDPAT,35.650626,139.689401,active,ベルフレア,東京都目黒区大橋1-7-19,"",15.0,true,true,4,scooter,4,gr,4,9,8,standard,https://limebike-web-public-assets.s3-us-west-1.amazonaws.com/placement_pins/ETZVXWCCKFCMFX3T,1.411203
DTFHJJ7URK4AQ,35.713431,139.826342,active,コースピカ,東京都墨田区京島3-67-6,"",15.0,true,true,5,scooter,0,"",5,8,8,standard,https://limebike-web-public-assets.s3.us-west-1.amazonaws.com/placement_pins/II6ZDOC26EHK7LHO,2.178857
GTH7B2BWMSTUC,35.712684,139.827517,active,THE ARCTURUS SPICA,東京都墨田区文花3-16-11,"",15.0,true,true,5,scooter,7,gr,7,14,12,standard,https://limebike-web-public-assets.s3-us-west-1.amazonaws.com/placement_pins/DJ5OGRAUSAEGJMRN,1.450786
FHSOVJAENEJFK,35.70857,139.686571,active,サンライズ東中野,東京都中野区東中野4-19-4,"",15.0,true,true,4,scooter,0,"",3,6,5,standard,https://limebike-web-public-assets.s3-us-west-1.amazonaws.com/placement_pins/EZ2B4YY43C2DWUHO,0.050918
INPS6L7OZ3ZQ5,35.633464,139.703328,active,目黒4丁目ポート,東京都目黒区目黒4-4-7,"",15.0,true,true,9,scooter,0,"",6,11,9,standard,https://limebike-web-public-assets.s3-us-west-1.amazonaws.com/placement_pins/IXIVG67SRF54BTJH,0.129542
EBTDCLYJ6K2HE,35.708561,139.815004,active,アーバイルプライムイースト,東京都墨田区業平4-14-5 アーバイルプライムイースト,"",15.0,true,true,1,scooter,0,"",2,3,2,standard,https://limebike-web-public-assets.s3-us-west-1.amazonaws.com/placement_pins/KX2JLTZNTFGBNI4T,0.49457
SLALUPCLUKEXP,35.699826,139.704661,active,スカイフィール大久保B棟,東京都新宿区大久保1-9-30,"",15.0,true,true,1,scooter,0,"",3,5,4,standard,https://limebike-web-public-assets.s3-us-west-1.amazonaws.com/placement_pins/KEOODSMBSE7SHD4Y,0.696509
YBICOQW4ZVRDB,35.68504,139.68538,active,クレベール西新宿①,東京都新宿区西新宿4-41-7,"",15.0,true,true,0,scooter,1,golden,6,12,10,standard,https://limebike-web-public-assets.s3.us-west-1.amazonaws.com/placement_pins/IYJBN4VUMRXBL7N6,2.835245
FCHMGXPXOZRYN,35.685109,139.68559,active,クレベール西新宿②,東京都新宿区西新宿4-41-7,"",15.0,true,true,6,scooter,5,gr,5,10,7,standard,https://limebike-web-public-assets.s3-us-west-1.amazonaws.com/placement_pins/U5SGZNHUCN4XMRDK,1.705912
JBCTXITOEADOG,35.688232,139.674738,active,セントレジデンス,東京都中野区弥生町3-33-2,"",20.0,true,true,2,scooter,0,"",2,3,2,standard,https://limebike-web-public-assets.s3-us-west-1.amazonaws.com/placement_pins/VEUYFOJF7INOJJ3Z,0.121538
J7P6AFM6SNX4F,35.688988,139.715073,active,M/W HOTEL,東京都新宿区四谷4-27-3,"",15.0,true,true,2,scooter,0,"",2,3,2,standard,https://limebike-web-public-assets.s3-us-west-1.amazonaws.com/placement_pins/K75TNRCSPYIK6ZD4,2.399831
TJRPL7QLZBNGD,35.681154,139.708069,active,モンパルテ北参道,東京都渋谷区千駄ヶ谷4-19-12,"",15.0,true,true,4,scooter,0,"",2,3,2,standard,https://limebike-web-public-assets.s3-us-west-1.amazonaws.com/placement_pins/4RGLFFX726EOE4GR,7.441405
7L5GM7BKWIEAE,35.648057,139.704325,active,tg代官山,東京都渋谷区恵比寿西2-20−12,"",15.0,true,true,8,scooter,5,gr,5,10,9,standard,https://limebike-web-public-assets.s3-us-west-1.amazonaws.com/placement_pins/O3WG4N47WTB5JCYT,0.616036
TZW2MRRR5QC5S,35.708135,139.809242,active,ATELIER295,東京都墨田区業平1-7-9,"",15.0,true,true,0,scooter,0,"",2,3,2,standard,https://limebike-web-public-assets.s3-us-west-1.amazonaws.com/placement_pins/5DXORYM6U7HJE5HW,1.089583
S6UY62IK2F5AM,35.701225,139.786187,active,望月ビル,東京都台東区浅草橋3-29-6,"",15.0,true,true,1,scooter,0,"",2,3,2,standard,https://limebike-web-public-assets.s3-us-west-1.amazonaws.com/placement_pins/QMDD2IJWYZEJQKTX,1.71554
CEMQ7YYIPIERF,35.727665,139.791249,active,ホテルMARUS,東京都台東区三ノ輪1-9-7,"",20.0,true,true,2,scooter,0,"",1,2,1,standard,https://limebike-web-public-assets.s3-us-west-1.amazonaws.com/placement_pins/XKZE33M45RLMTJA3,0.522025
YLEX3FMDPNXH3,35.707866,139.829273,active,スカイツリーハウス,東京都墨田区立花2-15-8,"",15.0,true,true,4,scooter,0,"",2,4,3,standard,https://limebike-web-public-assets.s3-us-west-1.amazonaws.com/placement_pins/AHSXZ7QN7X7MSGFM,0.0
I54TOSKXFXR4L,35.693114,139.795023,active,両国４丁目ポート,東京都墨田区両国4-8-2,"",15.0,true,true,3,scooter,0,"",3,5,4,standard,https://limebike-web-public-assets.s3-us-west-1.amazonaws.com/placement_pins/EUNLKIVLERG3UFMT,0.720001
TBAFC6K3Z3WOR,35.693846,139.797214,active,株式会社ヒット,東京都墨田区両国4-19-2,"",15.0,true,true,3,scooter,0,"",3,6,4,standard,https://limebike-web-public-assets.s3-us-west-1.amazonaws.com/placement_pins/NX5NN37GM2G52ZNL,0.099672
4S2U3253YO34D,35.632497,139.667687,active,野沢4丁目ポート,東京都世田谷区野沢4-9-7,"",15.0,true,true,8,scooter,0,"",6,12,10,standard,https://limebike-web-public-assets.s3-us-west-1.amazonaws.com/placement_pins/DEMSITDOLLT4FTB3,0.0
7GEUV2OQCC7J3,35.729821,139.794177,active,三ノ輪 改栄湯,東京都台東区三ノ輪2-10-15,"",15.0,true,true,2,scooter,0,"",2,3,2,standard,https://limebike-web-public-assets.s3-us-west-1.amazonaws.com/placement_pins/HRKVIQCWK2XSHCJA,0.241698
BUL5SEVZPNO6E,35.646563,139.62562,active,第3昭伸ハイツ,東京都世田谷区経堂4-5-13,"",15.0,true,true,5,scooter,0,"",10,20,18,standard,https://limebike-web-public-assets.s3-us-west-1.amazonaws.com/placement_pins/PSWZQV45YIIAPEET,0.0
DVBPZE7STQ6XO,35.642525,139.691978,active,スターレジデンス中目黒,東京都目黒区上目黒3-42−20,"",15.0,true,true,2,scooter,0,"",3,5,4,standard,https://limebike-web-public-assets.s3-us-west-1.amazonaws.com/placement_pins/26DW5IPFVWXZAL5W,0.0
LGYN7AOI6ITMI,35.638104,139.658627,active,スターレジデンス駒沢,東京都世田谷区上馬4-38-8,"",15.0,true,true,1,scooter,0,"",2,3,2,standard,https://limebike-web-public-assets.s3-us-west-1.amazonaws.com/placement_pins/XW3PIF3YN32RTE7E,0.517596
S6Y3CDR47T6N6,35.704753,139.774942,active,日本歯科工業社,東京都台東区上野5-12-8,"",15.0,true,true,4,scooter,1,golden,2,4,3,standard,https://limebike-web-public-assets.s3-us-west-1.amazonaws.com/placement_pins/ZYCKVK5LC42TXJ3G,2.093231
RA3CNJSNLLB3M,35.697726,139.799967,active,セレナ両国 北側スペース,東京都墨田区亀沢1-14-4,"",20.0,true,true,2,scooter,0,"",3,5,4,standard,https://limebike-web-public-assets.s3-us-west-1.amazonaws.com/placement_pins/W7NLLHQCP6WXWA46,0.392947
H456ALJLNZVYI,35.706708,139.810264,active,Light押上駐輪場,東京都墨田区業平1-2-9関根ビル,"",15.0,true,true,3,scooter,0,"",3,6,5,standard,https://limebike-web-public-assets.s3-us-west-1.amazonaws.com/placement_pins/IID5TBXQJF5NEMYN,0.0
RL4746CFL4OHC,35.703853,139.812671,active,体験工房前,東京都墨田区横川2-10-1,"",20.0,true,true,2,scooter,0,"",2,3,2,standard,https://limebike-web-public-assets.s3-us-west-1.amazonaws.com/placement_pins/PSTVZYEDW555TK7L,0.0
5YQTGKRDD7J2B,35.710765,139.832217,active,Ns Barque Mizzenhill Tatibana,東京都墨田区立花5-28-1,"",15.0,true,true,0,scooter,1,golden,2,3,2,standard,https://limebike-web-public-assets.s3-us-west-1.amazonaws.com/placement_pins/WHJ4TWP2DOPQVPMK,0.64979
4GX3OEIXGJ75D,35.69086,139.827529,active,江東区大島3丁目ドア前,東京都江東区大島3-12-4,"",15.0,true,true,4,scooter,0,"",3,5,4,standard,https://limebike-web-public-assets.s3.us-west-1.amazonaws.com/placement_pins/MUYL3MOXLE64QLXR,0.0
HFDGUFTNVTEHO,35.698127,139.621222,active,杉並区荻窪2丁目駐車場脇,東京都杉並区荻窪2-39-8,"",15.0,true,true,0,scooter,0,"",2,3,2,standard,https://limebike-web-public-assets.s3-us-west-1.amazonaws.com/placement_pins/2L6I5ZWGD4ITKZON,0.0
ZCC6WY6VN7TVP,35.703248,139.777755,active,月岡ビル,東京都台東区台東2-11-9,"",20.0,true,true,2,scooter,0,"",2,3,2,standard,https://limebike-web-public-assets.s3-us-west-1.amazonaws.com/placement_pins/HZQOZXRYFDXIF577,2.165838
7IY5EMUA2HUE7,35.67128,139.681157,active,IPSE代々木上原ＤＬＸ,東京都渋谷区西原3-34-10,"",15.0,true,true,0,scooter,0,"",3,6,5,standard,https://limebike-web-public-assets.s3.us-west-1.amazonaws.com/placement_pins/Q5C5TL7Y4J5AOFX6,0.586466
65PIK7DZYURUU,35.620597,139.748101,active,JAL Innovation Lab,"","",15.0,false,false,0,scooter,1,golden,2,2,2,standard,https://limebike-web-public-assets.s3-us-west-1.amazonaws.com/placement_pins/PLWGEN4B5EXTLOT2,
6YVQTCH66KHBG,35.66209,139.728067,active,EX六本木ビル,東京都港区六本木7-18-23,"",30.0,true,true,9,scooter,8,gr,8,12,9,standard,https://limebike-web-public-assets.s3-us-west-1.amazonaws.com/placement_pins/V2L7HYPOC627NBER,2.570383
5Q4TXEEWWSIJT,35.655062,139.656432,active,代田3丁目ポート,東京都世田谷区代田3-32-2,"",15.0,true,true,0,scooter,0,"",2,3,2,standard,https://limebike-web-public-assets.s3-us-west-1.amazonaws.com/placement_pins/2XHVKIZUFSWIHZSZ,0.0
ZDCJL7IKHNO64,35.686863,139.686092,active,後藤マンション入口前スペース,東京都新宿区西新宿4-25-16,"",20.0,true,true,2,scooter,1,golden,3,5,4,standard,https://limebike-web-public-assets.s3-us-west-1.amazonaws.com/placement_pins/J5MRYVCIQUQS7KWM,2.797621
WXP4J23TCHCYB,35.711358,139.682489,active,上落合3丁目ポート,東京都新宿区上落合3-25-4,"",15.0,true,true,2,scooter,0,"",2,3,2,standard,https://limebike-web-public-assets.s3-us-west-1.amazonaws.com/placement_pins/35IU5KOMSJZG7UOZ,0.67753
4WIXBK477VUY5,35.733192,139.704741,active,池袋2丁目ポート,東京都豊島区池袋2-23-23,"",15.0,true,true,4,scooter,6,gr,6,15,13,standard,https://limebike-web-public-assets.s3-us-west-1.amazonaws.com/placement_pins/CR22COB2W3OIW3OH,0.448968
MSTCUTBYUQDXI,35.711316,139.669395,active,新井1丁目ポート,東京都中野区新井1-17-13,"",18.0,true,true,4,scooter,0,"",3,5,4,standard,https://limebike-web-public-assets.s3-us-west-1.amazonaws.com/placement_pins/OJCSL5RUAYGQLVXU,0.0
EDCSPNPRPM2HB,35.702763,139.812056,active,第一興商建物奥,東京都墨田区横川2-1-10,"",15.0,true,true,6,scooter,0,"",5,8,7,standard,https://limebike-web-public-assets.s3.us-west-1.amazonaws.com/placement_pins/TXIQCLJ5X6SE5VUQ,0.0
GBSRUM2B5GRDY,35.695104,139.655705,active,Abitando蚕糸の森,東京都杉並区和田3‐31‐2,"",15.0,true,true,4,scooter,2,gr,2,5,4,standard,https://limebike-web-public-assets.s3-us-west-1.amazonaws.com/placement_pins/RXVKA2LYFWESKGRD,0.563353
UFEQVP7FTXNAT,35.722747,139.823035,active,ヴィステリアビル,東京都墨田区八広5-1-2,"",15.0,true,true,5,scooter,0,"",7,13,11,standard,https://limebike-web-public-assets.s3-us-west-1.amazonaws.com/placement_pins/W6SDUGQSSYS25J6P,0.242733
OAX2IBIW7QOBX,35.69359,139.79466,active,ステップワンビルの北側建物沿いスペース,東京都墨田区両国3-14-5 ステップワンビル,"",20.0,true,true,4,scooter,0,"",3,5,4,standard,https://limebike-web-public-assets.s3-us-west-1.amazonaws.com/placement_pins/SQPC7QD4DEQZ2BWS,0.430948
CT2F7ZDWZ63NL,35.711181,139.81044,active,押上2-4-2 空き地,東京都墨田区押上2-4-2 宗像荘,"",15.0,true,true,10,scooter,0,"",7,14,10,standard,https://limebike-web-public-assets.s3.us-west-1.amazonaws.com/placement_pins/4KQK3CFNN2LCEPSG,0.466633
6RTGHDRWIU5JO,35.73043,139.82477,active,シガーヒルズ前,東京都墨田区墨田4-50-10 コーポキッカワ,"",15.0,true,true,5,scooter,0,"",3,6,6,standard,https://limebike-web-public-assets.s3-us-west-1.amazonaws.com/placement_pins/AWVX6MX4MNYHFMIM,0.0
XPSQL4CSWWDY6,35.635719,139.664096,active,グランヴァン駒澤大学,東京都世田谷区上馬4-11-28,"",50.0,true,true,1,scooter,0,"",2,4,3,standard,https://limebike-web-public-assets.s3-us-west-1.amazonaws.com/placement_pins/3XBVKBDJDYC7BK7O,0.053468
3L7AZSE4EMX7T,35.703986,139.615074,active,シェ・モアA棟,東京都杉並区南荻窪4-45-8,"",15.0,true,true,3,scooter,0,"",4,7,6,standard,https://limebike-web-public-assets.s3-us-west-1.amazonaws.com/placement_pins/X5LX7OX67L4PMTQJ,0.0
2LV5WYILWABH2,35.700888,139.786152,active,シティハイム,東京都台東区浅草橋3-15-8,"",15.0,true,true,7,scooter,0,"",5,8,7,standard,https://limebike-web-public-assets.s3-us-west-1.amazonaws.com/placement_pins/QVZY2KQT7J2V422I,0.416086
WNGOB4XMCO5D5,35.719622,139.795417,active,みとや浅草千束店,東京都台東区浅草5-9-4千束みとやビル,"",20.0,true,true,3,scooter,0,"",3,5,4,standard,https://limebike-web-public-assets.s3-us-west-1.amazonaws.com/placement_pins/GLW5XWBZ4LIOVTBI,0.789399
IPRL5X6YDTGMD,35.71598,139.81052,active,さかもと点茶前,東京都墨田区向島4-1-3,"",15.0,true,true,2,scooter,0,"",2,4,3,standard,https://limebike-web-public-assets.s3-us-west-1.amazonaws.com/placement_pins/TVRIZODP5Q3FN6YJ,0.0
QHZCUQE2WUZ6W,35.71479,139.82281,active,Main hill kyoujima 前,東京都墨田区京島3-25-1 コーポ中原,"",15.0,true,true,3,scooter,0,"",2,3,2,standard,https://limebike-web-public-assets.s3-us-west-1.amazonaws.com/placement_pins/ZGSI4WT5CRWIHVTN,0.0
C5CTXJZLOAB7D,35.668673,139.615833,active,ハイツ・イーグル,東京都世田谷区八幡山3-35-28,"",15.0,true,true,1,scooter,0,"",5,10,7,standard,https://limebike-web-public-assets.s3-us-west-1.amazonaws.com/placement_pins/U7DX2NIPYEEWQTL7,0.0
HJQWHMELCV6UN,35.710444,139.719164,active,フェリオ西早稲田,東京都新宿区西早稲田1-6-3,"",15.0,true,true,2,scooter,0,"",3,5,4,standard,https://limebike-web-public-assets.s3-us-west-1.amazonaws.com/placement_pins/IYCF2AIJHW4BMXYU,0.806898
C7LXLXJDP5362,35.700267,139.705864,active,新大久保民泊玄関右側スペース,東京都新宿区大久保1-6-18,"",15.0,true,true,0,scooter,0,"",2,3,2,standard,https://limebike-web-public-assets.s3-us-west-1.amazonaws.com/placement_pins/UFWJWT37CEZMCBHN,1.052582
Y66XAXUAUIRZV,35.690051,139.726744,active,CITYCOURT四谷坂町,東京都新宿区四谷坂町4-5,"",15.0,true,true,0,scooter,0,"",1,2,1,standard,https://limebike-web-public-assets.s3-us-west-1.amazonaws.com/placement_pins/YKXNH25YQF42PP77,0.15714
HMGL5YMSGCTX4,35.699702,139.662059,active,スタジオロワール中野,東京都中野区中央5-21-1,"",15.0,true,true,4,scooter,4,gr,4,7,6,standard,https://limebike-web-public-assets.s3-us-west-1.amazonaws.com/placement_pins/PMWBAGWTF3MZXDJW,0.147709
5RD5X7BFZ76ER,35.691194,139.682323,active,田原マンション,東京都中野区弥生町1-3-5田原マンション,"",15.0,true,true,3,scooter,2,gr,2,4,3,standard,https://limebike-web-public-assets.s3-us-west-1.amazonaws.com/placement_pins/BT2JPWYBH272PPHS,1.089645
EBWS54ZHQJ7WO,35.73526,139.71358,active,池袋北苑駐車場,東京都豊島区池袋1-5-18,"",15.0,true,true,4,scooter,1,golden,5,10,9,standard,https://limebike-web-public-assets.s3.us-west-1.amazonaws.com/placement_pins/YNRS4XPH2LRU22NN,1.3233
KMGCXHZ3QWIRS,35.715108,139.696917,active,紺清ビル,東京都新宿区高田馬場3-28-2,"",20.0,true,true,1,scooter,0,"",2,3,2,standard,https://limebike-web-public-assets.s3-us-west-1.amazonaws.com/placement_pins/EORI6T7D2RBRKHGI,0.413436
PY5KTAWOSALCT,35.554156,139.738132,active,西糀谷3丁目ポート,東京都大田区西糀谷3-22-19,Test,20.0,true,true,3,scooter,0,"",5,11,11,standard,https://limebike-web-public-assets.s3.us-west-1.amazonaws.com/placement_pins/5YWRVPYMA4ZKZRZN,4.802239
M7IJUZT6BPOGG,35.68729,139.698258,active,THビル前,東京都渋谷区代々木2-4-1,"",20.0,true,true,1,scooter,4,gr,4,5,4,standard,https://limebike-web-public-assets.s3-us-west-1.amazonaws.com/placement_pins/5EOS4QQOKNZOLHTL,1.831789
DTUYAAXIXGCEM,35.687117,139.697797,active,イマス葵ビル前,東京都渋谷区代々木2-5-3,"",20.0,true,true,2,scooter,1,golden,3,5,4,standard,https://limebike-web-public-assets.s3-us-west-1.amazonaws.com/placement_pins/GEHDYIRDSKXPONG5,1.935201
KQ3AGVQIWURSY,35.701531,139.692581,active,今西ハイツ,東京都新宿区北新宿1-28-3 今西ハイツ,"",15.0,true,true,5,scooter,1,golden,6,11,9,standard,https://limebike-web-public-assets.s3-us-west-1.amazonaws.com/placement_pins/6KDNWGACD53UL5MK,0.821674
XCWMEHALBP6QR,35.63596,139.653355,active,弦巻2丁目ポート,東京都世田谷区弦巻2-22-17,"",15.0,true,true,6,scooter,0,"",5,8,7,standard,https://limebike-web-public-assets.s3-us-west-1.amazonaws.com/placement_pins/ANABJQIJV54D4GBI,0.0
6ZSNJFG6XZMIC,35.65529,139.647377,active,スターレジデンス豪徳寺,東京都世田谷区豪徳寺1-51-15,"",15.0,true,true,1,scooter,0,"",2,4,3,standard,https://limebike-web-public-assets.s3-us-west-1.amazonaws.com/placement_pins/O2M2VN4VM64MMKK7,0.0
2TAHAYESMDMDT,35.655869,139.656035,active,ジュネス梅ヶ丘,東京都世田谷区代田3-35 ジュネス梅ヶ丘BF,"",30.0,true,true,2,scooter,0,"",2,3,2,standard,https://limebike-web-public-assets.s3-us-west-1.amazonaws.com/placement_pins/ZNTHU7VTVS4P4EAA,0.027303
4UOI5BLXAMKRC,35.706715,139.79315,active,浅草スカイテラス,東京都台東区寿3-14-14,"",20.0,true,true,0,scooter,0,"",2,4,3,standard,https://limebike-web-public-assets.s3-us-west-1.amazonaws.com/placement_pins/YIABJ4WVZXLIJ3N5,2.098144
FNLLIWSIQ7BVT,35.710681,139.784252,active,日の出湯駐輪場,東京都台東区元浅草2-10-5,"",15.0,true,true,3,scooter,0,"",2,4,3,standard,https://limebike-web-public-assets.s3-us-west-1.amazonaws.com/placement_pins/JMPEFEENPMQUUX5T,2.05801
BM7Y4CYEILGAG,35.748444,139.717071,active,板橋1丁目43駐車場,東京都板橋区板橋1-43-11,"",15.0,true,true,3,scooter,0,"",6,12,9,standard,https://limebike-web-public-assets.s3-us-west-1.amazonaws.com/placement_pins/CLZSUXQO5BCKF5OU,0.0
KR6NJTUGEII4B,35.711242,139.754316,active,かわちや,東京都文京区本郷4-26-8,"",15.0,true,true,1,scooter,0,"",2,3,2,standard,https://limebike-web-public-assets.s3-us-west-1.amazonaws.com/placement_pins/BNHTYRRTAJCK4BYX,0.257931
GIYNSXIGWUWXG,35.728701,139.694479,active,若林邸,東京都豊島区長崎1-17-5,"",15.0,true,true,1,scooter,0,"",3,5,4,standard,https://limebike-web-public-assets.s3-us-west-1.amazonaws.com/placement_pins/2XJNIPY7JBNVMYTR,0.0
STLWCSE6PBZSA,35.733702,139.706264,active,Tokiwa10 building,東京都豊島区池袋2-32-3,"",15.0,true,true,1,scooter,1,golden,3,6,5,standard,https://limebike-web-public-assets.s3-us-west-1.amazonaws.com/placement_pins/OQD2PPMUDRUPWIXA,1.914739
NRELA4WZ6SO7Q,35.736667,139.709193,active,池袋響テラス,東京都豊島区池袋4-1-9,"",15.0,true,true,2,scooter,0,"",5,8,7,standard,https://limebike-web-public-assets.s3-us-west-1.amazonaws.com/placement_pins/NEAALU3ERG5DQQN6,0.574502
FRAF25ZSQTCXC,35.735858,139.709475,active,XWYビル,東京都豊島区池袋2-72-1,"",20.0,true,true,3,scooter,0,"",3,5,4,standard,https://limebike-web-public-assets.s3.us-west-1.amazonaws.com/placement_pins/NP4YKWSCQG32QZJK,0.160956
XDMOL3KH52L4F,35.742417,139.691442,active,博大株式会社 民泊,東京都豊島区千川2-36-6,"",40.0,true,true,2,scooter,0,"",2,3,2,standard,https://limebike-web-public-assets.s3-us-west-1.amazonaws.com/placement_pins/TUKLMGIK5LQTMD2J,0.0
S4LA45P63UTKE,35.725747,139.82278,active,エバーホワイト東向島 駐車場,東京都墨田区東向島6-51-14,"",15.0,true,true,4,scooter,0,"",3,6,4,standard,https://limebike-web-public-assets.s3-us-west-1.amazonaws.com/placement_pins/K3ECUDKHX74GCNS5,0.0
CE27PPRVVNE7S,35.713602,139.817903,active,墨田区押上３丁目２１－６ポート,東京都墨田区押上3-21-6,"",15.0,true,true,7,scooter,1,golden,6,12,10,standard,https://limebike-web-public-assets.s3-us-west-1.amazonaws.com/placement_pins/IF7NAZAFIEVYMK4I,0.500802
HRWXHBTODYXYJ,35.699116,139.833484,active,Dハウス亀戸,東京都江東区亀戸8-8 - 6,"",15.0,true,true,6,scooter,1,golden,4,7,6,standard,https://limebike-web-public-assets.s3-us-west-1.amazonaws.com/placement_pins/SZRLRFWZMJWOLPH6,0.026867
NUMMULQFOL5AZ,35.647911,139.745604,active,東員ビル 側面,東京都港区芝5-23-13,"",15.0,true,true,0,scooter,0,"",5,10,8,standard,https://limebike-web-public-assets.s3.us-west-1.amazonaws.com/placement_pins/IFHAFBGNKMMT3ZAK,0.0
L56RRFG3YUJTG,35.714912,139.695845,active,旅屋高田馬場,東京都新宿区高田馬場3-44-2,"",15.0,true,true,1,scooter,0,"",3,6,5,standard,https://limebike-web-public-assets.s3.us-west-1.amazonaws.com/placement_pins/ZEZ4O4D47GQYJBU2,1.343786
W5ZJI7DIDO43D,35.706339,139.691427,active,北新宿4丁目ポート,東京都新宿区北新宿4-18-11,"",15.0,true,true,4,scooter,1,golden,4,7,6,standard,https://limebike-web-public-assets.s3-us-west-1.amazonaws.com/placement_pins/DSLKKW7EG5AMVBTB,2.187325
JSMHATXHP2JCC,35.698374,139.69609,active,新宿区北新宿1丁目駐車場,東京都新宿区北新宿1-3-14,"",18.0,true,true,4,scooter,1,golden,3,5,5,standard,https://limebike-web-public-assets.s3-us-west-1.amazonaws.com/placement_pins/QI2E3DEW6HAB7JNX,1.82887
OQ4KDZPXOSBRN,35.701838,139.705478,active,大久保2丁目ポート①,東京都新宿区大久保2-18-17,"",15.0,true,true,4,scooter,1,golden,5,8,7,standard,https://limebike-web-public-assets.s3-us-west-1.amazonaws.com/placement_pins/7TTZE43W4NLFHYWJ,1.751022
PCX6OGHI6C4NH,35.693902,139.709637,active,新宿6丁目ポート,東京都新宿区新宿6-6-5,"",30.0,true,true,8,scooter,7,gr,7,10,9,standard,https://limebike-web-public-assets.s3.us-west-1.amazonaws.com/placement_pins/PCU7UIMODYWHQP5B,2.800828
BNKZ5ULDRV7CI,35.698659,139.709844,active,新宿7丁目ポート①,東京都新宿区新宿7-26-59,"",15.0,true,true,1,scooter,1,golden,3,6,5,standard,https://limebike-web-public-assets.s3.us-west-1.amazonaws.com/placement_pins/CZ345SUVZQFBGTEX,0.717549
ABRZYHGF6WF5J,35.701901,139.70263,active,大久保2丁目ポート②,東京都新宿区大久保2-32-9,"",20.0,true,true,0,scooter,1,golden,3,6,5,standard,https://limebike-web-public-assets.s3.us-west-1.amazonaws.com/placement_pins/JMWRVI6N4W6D7JZA,1.168999
G3RS6JJFQ7N6T,35.717185,139.798249,active,旅屋浅草,東京都台東区浅草3-29-5,"",20.0,true,true,7,scooter,6,gr,6,7,6,standard,https://limebike-web-public-assets.s3.us-west-1.amazonaws.com/placement_pins/65PWNYP45MKY5UFS,1.784763
MQTPGK5GYEVVH,35.677323,139.665165,active,グロリ笹塚,東京都中野区南台4-60-14,"",20.0,true,true,0,scooter,0,"",2,3,2,standard,https://limebike-web-public-assets.s3.us-west-1.amazonaws.com/placement_pins/7LYE4D27NAZIJ2HU,1.780022
XCIYJ7P75WN3D,35.700948,139.666948,active,旅屋中野,東京都中野区中央5-40-18,"",15.0,true,true,4,scooter,1,golden,3,5,4,standard,https://limebike-web-public-assets.s3.us-west-1.amazonaws.com/placement_pins/NKRQCGUDRWI4Q2VI,0.904796
MZG2GAJR2BGI5,35.744973,139.686222,active,ヒルトップマンション 自動販売機横,東京都板橋区大谷口2-49 - 12,"",15.0,true,true,0,scooter,0,"",2,3,3,standard,https://limebike-web-public-assets.s3.us-west-1.amazonaws.com/placement_pins/SVW75CXHG354LW6R,0.15651
5P7BWASZE57GR,35.74506,139.686373,active,ヒルトップマンション 裏側,東京都板橋区大谷口2-49,"",15.0,true,true,9,scooter,0,"",8,16,8,standard,https://limebike-web-public-assets.s3.us-west-1.amazonaws.com/placement_pins/ZAAWQKJBNUNY6IBE,0.0
P6WJT3PKPJUMS,35.597787,139.738046,active,岡本メディカルビル,東京都品川区南大井1-1-17,"",15.0,true,true,2,scooter,0,"",3,5,4,standard,https://limebike-web-public-assets.s3.us-west-1.amazonaws.com/placement_pins/VOVBDBVHWAPUIKFS,0.104625
HDSXBGPOCAPM7,35.70635,139.762214,active,プラネット本郷 外壁沿い,東京都文京区本郷3-27-13,"",15.0,true,true,2,scooter,0,"",1,2,2,standard,https://limebike-web-public-assets.s3-us-west-1.amazonaws.com/placement_pins/7LLSK5JN3KPN5FR6,0.621416
V3IYWSOVXWJ7Z,35.733505,139.737438,active,旅屋巣鴨,東京都豊島区巣鴨3-29 - 3,"",20.0,true,true,5,scooter,0,"",5,10,5,standard,https://limebike-web-public-assets.s3.us-west-1.amazonaws.com/placement_pins/DBZ62R2OO6L3E3M5,0.470559
K5K3EPX2YHY4B,35.726182,139.71583,active,エミナス池袋,東京都豊島区南池袋2-47-4,"",50.0,true,true,3,scooter,0,"",2,3,2,standard,https://limebike-web-public-assets.s3.us-west-1.amazonaws.com/placement_pins/4MIQO5KLV623DCJ6,2.344727
3QKGYAJ4N47P4,35.740915,139.723922,active,TK滝野川,東京都北区滝野川7-49-18,"",15.0,true,true,4,scooter,0,"",5,8,7,standard,https://limebike-web-public-assets.s3-us-west-1.amazonaws.com/placement_pins/N45LIYOGOS6C5JYG,0.0
DQS6YYMCLEYIL,35.714482,139.81525,active,Olive,東京都墨田区押上2-38-3,"",15.0,true,true,0,scooter,0,"",2,3,2,standard,https://limebike-web-public-assets.s3.us-west-1.amazonaws.com/placement_pins/WL5TOGUYJP6MXW5Z,0.072484
DN7E4F5XTD7VS,35.712664,139.805899,active,ブランノワール浅草言問,東京都墨田区向島1-11-60,"",40.0,true,true,2,scooter,2,gr,2,3,2,standard,https://limebike-web-public-assets.s3-us-west-1.amazonaws.com/placement_pins/24CEYCNCTHP4XVHC,1.583765
LJWT2WL6KVCWW,35.714127,139.819723,active,リベルトホテル,東京都墨田区京島2-7-2,"",15.0,true,true,3,scooter,0,"",5,10,9,standard,https://limebike-web-public-assets.s3.us-west-1.amazonaws.com/placement_pins/WZ7H6YFGPSI6QXXQ,0.221651
5OIHJFMLKK6XU,35.729514,139.825589,active,墨田4丁目戸建,東京都墨田区墨田4-55-4,"",30.0,true,true,2,scooter,1,golden,2,3,3,standard,https://limebike-web-public-assets.s3.us-west-1.amazonaws.com/placement_pins/WPIZ6CFNZNXCIWJR,0.329676
HYHNNA3D2J4JU,35.722227,139.820092,active,レーホーハウス,東京都墨田区東向島6-19-1,"",15.0,true,true,2,scooter,0,"",2,3,2,standard,https://limebike-web-public-assets.s3.us-west-1.amazonaws.com/placement_pins/K7SWPUPMPCWVXU66,1.137215
NUN27ESBR3JA2,35.68295,139.673661,active,F.L.A.G,東京都渋谷区幡ｹ谷3-60 - 15,"",15.0,true,true,4,scooter,1,golden,4,8,8,standard,https://limebike-web-public-assets.s3-us-west-1.amazonaws.com/placement_pins/7U2ABJSD7YD5GKBB,1.888934
6LOXP7DQAJ6KA,35.68094,139.692612,active,Space西新宿前,東京都渋谷区代々木4-17 - 3,"",15.0,true,true,3,scooter,0,"",2,3,2,standard,https://limebike-web-public-assets.s3.us-west-1.amazonaws.com/placement_pins/HEIC77FLCSKG2WZO,2.029004
6EKBSYALEJVR3,35.675508,139.669704,active,ロリエ笹塚,東京都渋谷区笹塚2-6-1,"",15.0,true,true,0,scooter,0,"",2,3,2,standard,https://limebike-web-public-assets.s3.us-west-1.amazonaws.com/placement_pins/JAW644M55BUXUITI,5.718146
E2PZWDFUXHAE4,35.701478,139.706068,active,旅屋東新宿,東京都新宿区大久保2-13-6,"",15.0,true,true,0,scooter,0,"",2,3,3,standard,https://limebike-web-public-assets.s3.us-west-1.amazonaws.com/placement_pins/62DHHPRZ55TVKWDD,2.01696
6RH25D67K4IPL,35.68315,139.727423,active,ペストリーうんてん入口奥,東京都新宿区若葉1-16-7,"",15.0,true,true,1,scooter,0,"",2,3,2,standard,https://limebike-web-public-assets.s3-us-west-1.amazonaws.com/placement_pins/EQUH7TWFNKP5J3CG,1.037114
7SVOU6AVAAMWN,35.699795,139.709927,active,VIP新宿,東京都新宿区新宿7-21-4,"",15.0,true,true,2,scooter,0,"",2,3,2,standard,https://limebike-web-public-assets.s3.us-west-1.amazonaws.com/placement_pins/TSM6KI7XMHZPWEVA,0.285252
33XCNYCT2RPE7,35.700776,139.696197,active,百人町1丁目ポート,東京都新宿区百人町1-19-23,"",15.0,true,true,7,scooter,5,gr,5,8,7,standard,https://limebike-web-public-assets.s3-us-west-1.amazonaws.com/placement_pins/BAVBXVK32ZHX7YEM,1.91452
T6JT6CPMIVM75,35.691894,139.741897,active,フラット九段南,東京都千代田区九段南3-3-14,"",20.0,true,true,3,scooter,0,"",3,5,3,standard,https://limebike-web-public-assets.s3.us-west-1.amazonaws.com/placement_pins/SBVKNEP6VAH7ZUVN,0.09413
RQ3WRGJP6WDVI,35.735091,139.696179,active,旅屋要町の丘,東京都豊島区要町1-27-18,"",15.0,true,true,2,scooter,0,"",2,3,2,standard,https://limebike-web-public-assets.s3.us-west-1.amazonaws.com/placement_pins/XRL2MBYSWGX4TMN4,0.058041
BWOCKCGR5XDDU,35.730844,139.72436,active,広文東池袋ビル,東京都豊島区東池袋2-10 - 9,"",15.0,true,true,0,scooter,0,"",2,4,3,standard,https://limebike-web-public-assets.s3.us-west-1.amazonaws.com/placement_pins/2RONQMAACASEJERY,0.223912
UHY3TFJSHZ76X,35.735375,139.734446,active,Tokyo Trip Stay SUGAMO,東京都豊島区巣鴨3-17 - 11,"",15.0,true,true,2,scooter,0,"",3,6,5,standard,https://limebike-web-public-assets.s3.us-west-1.amazonaws.com/placement_pins/BD3OAEFIW7YC3HJF,0.0
XLNROG6LVQNCS,35.652127,139.705381,active,代官山町6丁目ポート,東京都渋谷区代官山町6-8,"",20.0,true,true,10,scooter,7,gr,7,12,11,standard,https://limebike-web-public-assets.s3.us-west-1.amazonaws.com/placement_pins/Z3RMCVQYW74CLWR3,1.678126
WAW2R4NNPVIK6,35.684223,139.694843,active,ビーフンデザイン入口左側,東京都渋谷区代々木3-13-1,"",20.0,true,true,7,scooter,1,golden,8,16,10,standard,https://limebike-web-public-assets.s3.us-west-1.amazonaws.com/placement_pins/ZMMA4GKU6LHETVNO,4.068211
CBH7XQOT3QYRT,35.713952,139.698903,active,コーポ安本1&2 ゴミ置き場右側,東京都新宿区高田馬場3-16-2,"",15.0,true,true,2,scooter,0,"",5,8,7,standard,https://limebike-web-public-assets.s3.us-west-1.amazonaws.com/placement_pins/E4S4YEEAEWVFWJG3,1.276439
W3NPY6753T32D,35.713802,139.69901,active,コーポ安本1&2 コインランドリー右側,東京都新宿区高田馬場3-16-2,"",15.0,true,true,0,scooter,0,"",1,2,1,standard,https://limebike-web-public-assets.s3.us-west-1.amazonaws.com/placement_pins/P4XKOQCOXGK3C6D5,2.179258
GJ2A5NVD3E7H7,35.698437,139.603102,active,西荻南１丁目ポート,東京都杉並区西荻南1-17-17,"",15.0,true,true,3,scooter,0,"",3,4,3,standard,https://limebike-web-public-assets.s3.us-west-1.amazonaws.com/placement_pins/HDYDRE3K7DTZLXCK,0.0
S5HX3TBARJYWR,35.713962,139.78822,active,ミレジムハウス駐輪場,東京都台東区松が谷2-23-4,"",20.0,true,true,2,scooter,0,"",3,6,5,standard,https://limebike-web-public-assets.s3.us-west-1.amazonaws.com/placement_pins/HYBHHFVEDXBD64ZF,1.634975
C7NK4Y36GY3CV,35.701399,139.668004,active,RESIDENCE TOKYO 中野南,東京都中野区中央4-28-14,"",15.0,true,true,4,scooter,0,"",2,4,3,standard,https://limebike-web-public-assets.s3.us-west-1.amazonaws.com/placement_pins/6V6HT5MPK7GR7ARH,0.150773
AJL7BE4XZPWWQ,35.701245,139.667937,active,中野区中央4-28-1ポート,東京都中野区中央4-28-1,"",15.0,true,true,2,scooter,0,"",2,3,2,standard,https://limebike-web-public-assets.s3.us-west-1.amazonaws.com/placement_pins/LWCNXZVJJSNBRT6H,0.144833
KNCTBON4TQNE6,35.710165,139.806858,active,THE STONE SESSION TOKYO入り口前,東京都墨田区向島1-23-18,"",15.0,true,true,0,scooter,2,gr,2,3,2,standard,https://limebike-web-public-assets.s3.us-west-1.amazonaws.com/placement_pins/MZFWGW33XWSNQX4W,1.484477
KXVP7MPKKB7NM,35.710116,139.807211,active,パデル東京ミズマチ,東京都墨田区向島1-32-4,"",15.0,true,true,3,scooter,5,gr,5,9,8,standard,https://limebike-web-public-assets.s3.us-west-1.amazonaws.com/placement_pins/UZTWDENARP2KCSPN,2.85052
NRGIQI2GW2VN2,35.626815,139.6936,active,スリースターレジデンス学芸大学 西,東京都目黒区目黒本町2-5-17,"",15.0,true,true,2,scooter,0,"",2,4,3,standard,https://limebike-web-public-assets.s3.us-west-1.amazonaws.com/placement_pins/QX2IKPTJXXVARU2A,0.294951
VBJGGLEP6B2JC,35.626849,139.693669,active,スリースターレジデンス学芸大学 東,東京都目黒区目黒本町2-5-17,"",15.0,true,true,0,scooter,0,"",2,3,2,standard,https://limebike-web-public-assets.s3.us-west-1.amazonaws.com/placement_pins/ZFBLSNVCBJ7PQZNV,0.0
7N4AL6CF2U2G4,35.653627,139.687481,active,グランヒルレジデンス目黒大橋,東京都目黒区大橋2-12-11,"",15.0,true,true,3,scooter,1,golden,3,5,4,standard,https://limebike-web-public-assets.s3.us-west-1.amazonaws.com/placement_pins/6NUCO4J7NMY6S3H6,3.980051
K4G4X7Y3G225D,35.666949,139.705008,active,株式会社LOWHA-,東京都渋谷区神宮前6-11-4,"",20.0,true,true,1,scooter,1,golden,2,4,3,standard,https://limebike-web-public-assets.s3.us-west-1.amazonaws.com/placement_pins/CLD2GA7ERQUY6PAK,6.398077
SWRI36UUWBGAX,35.685661,139.693366,active,代々木3丁目駐車場,東京都渋谷区代々木3-23,"",40.0,true,true,2,scooter,1,golden,2,3,2,standard,https://limebike-web-public-assets.s3.us-west-1.amazonaws.com/placement_pins/YI35SV6ZYMAAN2CV,4.105124
FC3HSEHTQKTQB,35.646174,139.719116,active,パークフィールド恵比寿２丁目,東京都渋谷区恵比寿2-14,"",15.0,true,true,3,scooter,0,"",2,4,3,standard,https://limebike-web-public-assets.s3.us-west-1.amazonaws.com/placement_pins/VYEWDNNUJZUFW7X5,0.0
STFAEJXLKB3TC,35.684866,139.681143,active,ビビアン前,東京都渋谷区本町2-30-6,"",15.0,true,true,3,scooter,1,golden,7,13,11,standard,https://limebike-web-public-assets.s3.us-west-1.amazonaws.com/placement_pins/MZVZF7NPGXNB5TON,1.549001
WDFWGPXESV4I6,35.68058,139.700509,active,代々木フラッツ正面駐車場前,東京都渋谷区代々木1-4-1,"",15.0,true,true,0,scooter,0,"",6,12,10,standard,https://limebike-web-public-assets.s3.us-west-1.amazonaws.com/placement_pins/ONEAL63BSBPJLMBC,0.329394
TQALM3VMZV5OD,35.680591,139.700652,active,代々木ニューフラッツ正面玄関前,東京都渋谷区代々木1-4-1,"",15.0,true,true,2,scooter,0,"",5,8,7,standard,https://limebike-web-public-assets.s3.us-west-1.amazonaws.com/placement_pins/5XMYDMNLSIVOCYMG,1.018021
PYG3OLV7NV4AY,35.706571,139.615641,active,藤野ドエル,東京都杉並区上荻1-24-10,"",15.0,true,true,4,scooter,5,gr,5,10,8,standard,https://limebike-web-public-assets.s3.us-west-1.amazonaws.com/placement_pins/L6M7IH7I2RNU6BEH,0.641331
O6STYMGFTUXKH,35.707405,139.623063,active,メゾン荻窪,東京都杉並区天沼3-32-1,"",15.0,true,true,0,scooter,0,"",2,4,3,standard,https://limebike-web-public-assets.s3.us-west-1.amazonaws.com/placement_pins/25ALN4NERVQCVKJH,0.0
HKNK3JYJPZVX5,35.666559,139.643516,active,ボタニカプライベート下高井戸 側面,東京都世田谷区松原3-32-8,"",15.0,true,true,5,scooter,0,"",3,6,5,standard,https://limebike-web-public-assets.s3.us-west-1.amazonaws.com/placement_pins/3BNDUUV73XXKJHWA,0.0
VH2M7UFDVIBPU,35.568598,139.692903,active,はやちゃんち前,東京都大田区千鳥2-36-1,"",15.0,true,true,0,scooter,0,"",1,2,1,standard,https://limebike-web-public-assets.s3.us-west-1.amazonaws.com/placement_pins/BZW5Q7AC7M7Y5F6E,0.0
EUSBWI7R3HJK2,35.577298,139.733117,active,ALLURE大森西,東京都大田区大森西2-11-4,"",15.0,true,true,3,scooter,0,"",3,5,4,standard,https://limebike-web-public-assets.s3.us-west-1.amazonaws.com/placement_pins/YHLELUQ5HAYI44Q4,0.0
KF75GSJC4CNEZ,35.721027,139.644934,active,REFIR NAKANO,東京都中野区若宮3-7-5,"",15.0,true,true,5,scooter,0,"",5,8,5,standard,https://limebike-web-public-assets.s3.us-west-1.amazonaws.com/placement_pins/UGNK5KQ4GRQPGNOT,0.0
UICGUD7FMRNC3,35.695781,139.680137,active,中野区本町2丁目ポート,東京都中野区本町2-41,"",15.0,true,true,2,scooter,0,"",5,10,5,standard,https://limebike-web-public-assets.s3.us-west-1.amazonaws.com/placement_pins/LZJLNGTMO3OCG4ZI,0.430927
LCWD5FCA4OGNL,35.711543,139.669257,active,Jツアーズ・じろう塾,東京都中野区新井1-18-4,"",17.0,true,true,2,scooter,0,"",2,3,2,standard,https://limebike-web-public-assets.s3.us-west-1.amazonaws.com/placement_pins/KV6F6HLGME5FOZXR,0.0
MNCGXI2CQCGBU,35.587654,139.734007,active,南大井3丁目立体駐車場 立体駐車場蛇口横,東京都品川区南大井3-33,"",15.0,true,true,3,scooter,0,"",4,7,6,standard,https://limebike-web-public-assets.s3.us-west-1.amazonaws.com/placement_pins/CJEAM6J6VVUMD6YT,0.589358
WD27EKEWZ3LLX,35.596545,139.735549,active,GALLOPコインランドリー 建物正面左,東京都品川区南大井4-8-13,"",15.0,true,true,0,scooter,0,"",2,4,3,standard,https://limebike-web-public-assets.s3.us-west-1.amazonaws.com/placement_pins/2FUCEFNJTODASPQB,0.0
SLFU74PVAA5M2,35.641556,139.718144,active,EMハイツ,東京都品川区上大崎2-2-3,"",15.0,true,true,3,scooter,1,golden,2,3,2,standard,https://limebike-web-public-assets.s3.us-west-1.amazonaws.com/placement_pins/6XGTG7WQNCFWK6TT,1.238645
D6RAALISBT3RG,35.727208,139.688018,active,イデオ椎の実 ゴミ置き場横,東京都豊島区南長崎3-38-11,"",15.0,true,true,6,scooter,0,"",5,10,6,standard,https://limebike-web-public-assets.s3.us-west-1.amazonaws.com/placement_pins/C2SVBYS5P3C5YD5E,0.0
LJ5IYARHP5R2Z,35.659549,139.693918,active,松濤1丁目,東京都渋谷区松濤1-28-11,"",45.0,true,true,3,scooter,6,gr,6,8,8,standard,https://limebike-web-public-assets.s3.us-west-1.amazonaws.com/placement_pins/5VQQW3WHUR5RMHOU,6.752481
FVOTN7KDNS6SK,35.677739,139.704276,active,Hata神宮前9Zビル前,東京都渋谷区千駄ｹ谷3-7-6,"",15.0,true,true,1,scooter,1,golden,2,3,2,standard,https://limebike-web-public-assets.s3.us-west-1.amazonaws.com/placement_pins/KDGCKY67EIV5OOG4,2.854254
Q4COPFLKHJQOM,35.707147,139.634317,active,イルソーレ阿佐ヶ谷 正面,東京都杉並区阿佐谷北2-37-6,"",20.0,true,true,7,scooter,0,"",5,10,7,standard,https://limebike-web-public-assets.s3.us-west-1.amazonaws.com/placement_pins/ROLBACWKNBJN7S3Q,0.750924
N5PYOJRCP3RRC,35.645558,139.663618,active,メゾン若林①,東京都世田谷区若林1-10-19,"",15.0,true,true,0,scooter,0,"",3,4,4,standard,https://limebike-web-public-assets.s3.us-west-1.amazonaws.com/placement_pins/VJSAT3VHZARPONYT,1.303957
DNMELATPM65GJ,35.645495,139.663611,active,メゾン若林②,東京都世田谷区若林1-10-19,"",15.0,true,true,0,scooter,0,"",1,2,2,standard,https://limebike-web-public-assets.s3.us-west-1.amazonaws.com/placement_pins/BDXFJ7YTQ3ICLD5G,0.221643
DQLWMVNQ5HH4P,35.71724,139.768827,active,HOTEL GRAPHY NEZU,東京都台東区池之端4-5-10,"",15.0,true,true,2,scooter,0,"",5,10,9,standard,https://limebike-web-public-assets.s3.us-west-1.amazonaws.com/placement_pins/BVA324RCULUHV4UP,0.831856
XQKAGVMRTQKWA,35.709333,139.770775,active,&Here TOKYO UENO,東京都台東区上野2-11-18,"",15.0,true,true,2,scooter,3,gr,3,6,5,standard,https://limebike-web-public-assets.s3.us-west-1.amazonaws.com/placement_pins/GRJ2732VHTWYAS64,3.35335
MNOVJGUS2FTNX,35.706681,139.668739,active,マキノハイツ 駐車場,東京都中野区中野5-30-12,"",15.0,true,true,3,scooter,6,gr,6,12,6,standard,https://limebike-web-public-assets.s3.us-west-1.amazonaws.com/placement_pins/QXOW5Y6H7SG4Q4VV,1.094865
HK5FUDNIX5PDA,35.708982,139.674662,active,Hacienda,東京都中野区上高田1-36-26,"",15.0,true,true,2,scooter,0,"",2,4,3,standard,https://limebike-web-public-assets.s3.us-west-1.amazonaws.com/placement_pins/LIYKUA4MZKRGY7KS,0.859823
NQU74HIR6KGM5,35.622171,139.748222,active,ボンド,東京都品川区東品川2-6-10,"",20.0,true,true,1,scooter,0,"",2,3,2,standard,https://limebike-web-public-assets.s3.us-west-1.amazonaws.com/placement_pins/UNB6UX3RGVJMHL4S,0.546805
EESUENBTQSISM,35.748315,139.724454,active,滝野川5丁目,東京都北区滝野川5-31-5,"",20.0,true,true,5,scooter,0,"",6,12,6,standard,https://limebike-web-public-assets.s3.us-west-1.amazonaws.com/placement_pins/COYR2KUXRZPXW4OW,0.0
6CT6RS7ZJP3PG,35.722696,139.823819,active,久保田ハイツ裏側,東京都墨田区八広5-4-20,"",15.0,true,true,2,scooter,0,"",2,3,2,standard,https://limebike-web-public-assets.s3.us-west-1.amazonaws.com/placement_pins/4MLMHTADKXFJC3D6,0.0
PBJ3JPV7W2Y5Q,35.722677,139.823992,active,久保田ハイツ表側,東京都墨田区八広5-4-20,"",15.0,true,true,7,scooter,0,"",5,8,7,standard,https://limebike-web-public-assets.s3.us-west-1.amazonaws.com/placement_pins/34UWWFLVVLW6QXPA,0.0
WSCC7XUKBY3PR,35.707987,139.814601,active,業平4丁目ポート,東京都墨田区業平4-10-9,"",20.0,true,true,4,scooter,0,"",5,8,7,standard,https://limebike-web-public-assets.s3.us-west-1.amazonaws.com/placement_pins/KI7FUOK72UH6L532,0.195982
HUBZD3BLGYAF5,35.687183,139.811304,active,猿江1丁目ポート,東京都江東区猿江1-19-5,"",20.0,true,true,4,scooter,0,"",6,12,6,standard,https://limebike-web-public-assets.s3.us-west-1.amazonaws.com/placement_pins/OKFH6PHOPGZZLH4C,1.870919
QTBSGXKMF4V4I,35.659341,139.69541,active,ユーロスペース 正面右,東京都渋谷区円山町1-5,"",30.0,true,true,6,scooter,7,gr,7,9,8,standard,https://limebike-web-public-assets.s3.us-west-1.amazonaws.com/placement_pins/FTNIRWNTH7VWGMUF,5.082731
CDELCFPVW3FGF,35.684331,139.720574,active,正覺寺 正面,東京都新宿区須賀町14-1,"",15.0,true,true,0,scooter,0,"",2,3,2,standard,https://limebike-web-public-assets.s3.us-west-1.amazonaws.com/placement_pins/7VB7RXF3YB2IA6GD,0.979667
5YNY6AYFXPJGY,35.692485,139.723487,active,曙倉庫 裏側,東京都新宿区片町8-2,"",25.0,true,true,5,scooter,0,"",5,8,8,standard,https://limebike-web-public-assets.s3.us-west-1.amazonaws.com/placement_pins/GZL3LMZFZZ4USGTK,1.528585
QI5DESL2JMG5M,35.715787,139.68627,active,味覚庵 店舗横ポート,東京都新宿区中井1-1-10,"",15.0,true,true,3,scooter,1,golden,3,5,5,standard,https://limebike-web-public-assets.s3.us-west-1.amazonaws.com/placement_pins/PJOASTYRFRCU3DLC,0.203801
RPGFOCYYCBEB7,35.664047,139.613011,active,ドームス芦花公園,東京都世田谷区粕谷2-17-1,"",15.0,true,true,1,scooter,4,gr,4,6,6,standard,https://limebike-web-public-assets.s3.us-west-1.amazonaws.com/placement_pins/WNUJT2JF3GM5BWPM,0.607943
ZQSSOUNH34RWX,35.585704,139.698709,active,岩本コンパウンド自販機裏,東京都大田区仲池上2-23-1,"",15.0,true,true,0,scooter,1,golden,3,4,4,standard,https://limebike-web-public-assets.s3.us-west-1.amazonaws.com/placement_pins/CPK3WMV5TO4WIFC4,0.06787
SB6AQWDMDRMQY,35.706067,139.686743,active,誠和ビル脇,東京都中野区東中野1-49-7,"",20.0,true,true,2,scooter,1,golden,2,3,3,standard,https://limebike-web-public-assets.s3.us-west-1.amazonaws.com/placement_pins/L6BDJYPGVPXK47FW,2.054573
D2TQFZAPF5HXZ,35.609937,139.737181,active,JLBグランエクリュ大井町Ⅲ 正面,東京都品川区南品川6-12-8,"",15.0,true,true,11,scooter,0,"",7,11,11,standard,https://limebike-web-public-assets.s3.us-west-1.amazonaws.com/placement_pins/IO3XDZFNNQJ6FTGT,0.115562
T6PA3KNY5LB2W,35.711968,139.816845,active,ハイツ伊藤,東京都墨田区押上3-24-18,"",15.0,true,true,7,scooter,0,"",5,10,10,standard,https://limebike-web-public-assets.s3.us-west-1.amazonaws.com/placement_pins/Y44XTBWLQ6K3UNR2,0.020565
KM6LLOGL2IONE,35.702515,139.797635,active,鈴木ビル,東京都墨田区本所1-8-5,"",15.0,true,true,5,scooter,1,golden,4,7,7,standard,https://limebike-web-public-assets.s3.us-west-1.amazonaws.com/placement_pins/4BM3YQYZX3GGXLIH,1.109871
4AYSM75YYSBEB,35.67964,139.724308,active,南元町戸建て 横側,東京都新宿区南元町11-4,"",50.0,true,true,2,scooter,0,"",2,3,2,standard,https://limebike-web-public-assets.s3.us-west-1.amazonaws.com/placement_pins/MUXCF2UBPP5ECLWI,5.191893
7E622Y5YY4KSR,35.638096,139.823302,active,株式会社ウガイ銘木 側面,東京都江東区新木場2-10-5,"",50.0,true,true,2,scooter,1,golden,5,8,8,standard,https://limebike-web-public-assets.s3.us-west-1.amazonaws.com/placement_pins/HCP6FZVLRWGI52P4,0.582548
KC3J4L7MT3LAR,35.706321,139.819556,active,サクラガーデンビラスカイツリー,東京都江東区亀戸3-33-8,"",15.0,true,true,2,scooter,0,"",2,3,3,standard,https://limebike-web-public-assets.s3.us-west-1.amazonaws.com/placement_pins/EOC6KNNESPQQQ6GH,0.0
JTCCFWTXQUY7P,35.646298,139.832141,active,株式会社木場ベニヤ商会 主道路沿い側面,東京都江東区新木場1-7-11,"",15.0,true,true,4,scooter,0,"",5,8,5,standard,https://limebike-web-public-assets.s3.us-west-1.amazonaws.com/placement_pins/PJP66YFCH2QWVAFV,0.075645
Q5RXIYXYP4XCT,35.698497,139.82788,active,モント亀戸,東京都江東区亀戸5-6-8,"",15.0,true,true,5,scooter,4,gr,4,7,7,standard,https://limebike-web-public-assets.s3.us-west-1.amazonaws.com/placement_pins/WVRBKERSOIGWHSJ3,0.795269
GEWXUYMG2M4J2,35.633706,139.832283,active,ベースランド新木場 裏手,東京都江東区新木場3-4-11,"",20.0,true,true,3,scooter,0,"",8,13,13,standard,https://limebike-web-public-assets.s3.us-west-1.amazonaws.com/placement_pins/U6DIHEGK6NOMEYLZ,0.0
JD4MZXMMQLHBB,35.701914,139.699464,active,ルネッサンス新宿,東京都新宿区百人町2-10-6,"",33.0,true,true,9,scooter,7,gr,7,12,12,standard,https://limebike-web-public-assets.s3.us-west-1.amazonaws.com/placement_pins/5CYBWPEA2VKD7YCQ,2.013818
DTTG7ECFJGQQ7,35.710372,139.707142,active,フラワービレッジ,東京都新宿区高田馬場1-7-14,"",15.0,true,true,3,scooter,0,"",5,8,5,standard,https://limebike-web-public-assets.s3.us-west-1.amazonaws.com/placement_pins/A7D7R5LRDYJUJTPU,13.676637
4V4ZWJPXAE4JP,35.675892,139.661563,active,スタセーラ駐輪場,東京都杉並区方南1-12-5,"",15.0,true,true,4,scooter,0,"",4,7,7,standard,https://limebike-web-public-assets.s3.us-west-1.amazonaws.com/placement_pins/RFWWUWR2IU42ZHZH,0.0
SFD75AI6WUDSB,35.688899,139.653793,active,モント方南町,東京都杉並区堀ﾉ内2-15-10,"",20.0,true,true,2,scooter,0,"",4,7,4,standard,https://limebike-web-public-assets.s3.us-west-1.amazonaws.com/placement_pins/4RR5RNOTFBOMKUWX,0.55624
R4FQZCLMIT43H,35.694019,139.639357,active,メゾンドサクラ（成田東）,東京都杉並区成田東3-32-30,"",15.0,true,true,6,scooter,0,"",5,8,7,standard,https://limebike-web-public-assets.s3.us-west-1.amazonaws.com/placement_pins/QMV2JN34NZIMV6WW,0.0
RTZA74FAJD2N4,35.649452,139.607225,active,コンセールソシガヤ 自動販売機横,東京都世田谷区祖師谷4-24-14,"",15.0,true,true,3,scooter,0,"",2,3,2,standard,https://limebike-web-public-assets.s3.us-west-1.amazonaws.com/placement_pins/X4QORXFOYVV4OC7K,0.0
REHVS4R6DA5XS,35.629295,139.650102,active,グランエクリュ桜新町,東京都世田谷区新町2-7-3,"",15.0,true,true,2,scooter,0,"",2,3,2,standard,https://limebike-web-public-assets.s3.us-west-1.amazonaws.com/placement_pins/CWWQGS22PQNNLU7O,0.451508
E2VPP3HZE2YCI,35.651076,139.63432,active,リベルテ経堂 入り口前通路,東京都世田谷区経堂2-15-17,"",15.0,true,true,3,scooter,0,"",5,8,7,standard,https://limebike-web-public-assets.s3.us-west-1.amazonaws.com/placement_pins/FRNNBPSB6DAY7FG7,0.0
2FENWV35UFWDR,35.622697,139.606611,active,リカーアンドフーズ山 正面,東京都世田谷区宇奈根3-1-12,"",15.0,true,true,6,scooter,0,"",4,6,6,standard,https://limebike-web-public-assets.s3.us-west-1.amazonaws.com/placement_pins/QSAOVSOCSX6GIC5Y,0.0
I77F3TMNDZO3N,35.717564,139.670073,active,松が丘1丁目ポート,東京都中野区松が丘1-5-8,"",15.0,true,true,2,scooter,0,"",2,3,3,standard,https://limebike-web-public-assets.s3.us-west-1.amazonaws.com/placement_pins/QAUQB2O3A4IQTQJR,0.0
LQHN4XRAURTCW,35.701872,139.670541,active,中野区中央4丁目ポート,東京都中野区中央4-47-8,"",15.0,true,true,4,scooter,0,"",5,8,6,standard,https://limebike-web-public-assets.s3.us-west-1.amazonaws.com/placement_pins/T3DTUYCWBJZ7NWIS,0.0
NHF7XBTIZM4PC,35.601482,139.710011,active,中延６丁目町会掲示板裏,東京都品川区中延6-11-21,"",15.0,true,true,4,scooter,0,"",4,6,6,standard,https://limebike-web-public-assets.s3.us-west-1.amazonaws.com/placement_pins/U4R3H56WHKGOEZBI,0.0
PLZCN6LZBZFYH,35.737862,139.729812,active,シャルマン西巣鴨 駐輪場背面,東京都豊島区西巣鴨2-5-23,"",15.0,true,true,2,scooter,0,"",4,7,5,standard,https://limebike-web-public-assets.s3.us-west-1.amazonaws.com/placement_pins/BDGVJJZQAP3CNGXU,0.0
DS4VEOZ4K6W5I,35.709584,139.806958,active,吾妻橋3丁目ポート,東京都墨田区吾妻橋3-4-11,"",15.0,true,true,2,scooter,1,golden,5,9,9,standard,https://limebike-web-public-assets.s3.us-west-1.amazonaws.com/placement_pins/VXUIWGRVPL5X562Q,1.015907
GRLBG4K2BJ7HJ,35.716375,139.795339,active,KANZASHI TOKYO ASAKUSA 裏側,東京都台東区浅草2-27-10,"",20.0,true,true,7,scooter,0,"",11,18,13,standard,https://limebike-web-public-assets.s3.us-west-1.amazonaws.com/placement_pins/EJZFLQQVWCXZHBYZ,3.131142
TREYX4L4TWYC5,35.712341,139.69118,active,上落合1丁目バイク駐輪場,東京都新宿区上落合1-7-8,"",15.0,true,true,2,scooter,0,"",3,5,4,standard,https://limebike-web-public-assets.s3.us-west-1.amazonaws.com/placement_pins/LMDFEEZWSDGKB2E4,0.10407
AJ6GE7DEQCETP,35.731382,139.774064,active,西日暮里2丁目ポート,東京都荒川区西日暮里2-8-10,"",15.0,true,true,9,scooter,0,"",5,10,8,standard,https://limebike-web-public-assets.s3.us-west-1.amazonaws.com/placement_pins/UB2IFUX3Y4ZRTF6P,0.0
JFRWSHFXJSFWN,35.646832,139.718021,active,ｃｏｃｏ ａｏｋｉ建物脇,東京都渋谷区恵比寿2-15-8,"",15.0,true,true,5,scooter,5,gr,5,8,7,standard,https://limebike-web-public-assets.s3.us-west-1.amazonaws.com/placement_pins/VTP6P4R3RM46COBC,1.981864
E2KJX3MLWRBQY,35.690054,139.721021,active,舟町駐車場,東京都新宿区舟町8-4,"",20.0,true,true,6,scooter,1,golden,5,8,7,standard,https://limebike-web-public-assets.s3.us-west-1.amazonaws.com/placement_pins/XBX7OKO5XAMJ2GM5,2.355639
AVU3NPA6WYU3F,35.693115,139.68517,active,エルミタージュ西新宿,東京都新宿区西新宿5-16-6,"",15.0,true,true,2,scooter,0,"",3,5,4,standard,https://limebike-web-public-assets.s3.us-west-1.amazonaws.com/placement_pins/JAALR7IVEKQIOIKQ,2.0857
A5V3BMQGRBDXM,35.696856,139.702112,active,三幸ビルBポート,東京都新宿区歌舞伎町2-39-2,"",30.0,true,true,0,scooter,1,golden,2,4,3,standard,https://limebike-web-public-assets.s3.us-west-1.amazonaws.com/placement_pins/7VS24TOVHIXAIVA7,3.566183
7G7N4LFK2JQPL,35.714589,139.68354,active,オアシスコートM ゴミステーション横,東京都新宿区中井1-9-2,"",15.0,true,true,2,scooter,0,"",2,3,2,standard,https://limebike-web-public-assets.s3.us-west-1.amazonaws.com/placement_pins/MIQ3QDT3JLQ3F4W6,0.576725
XJLLS5CZZJTPG,35.711392,139.695101,active,観音寺,東京都新宿区高田馬場3-37-26,"",15.0,true,true,2,scooter,0,"",2,4,3,standard,https://limebike-web-public-assets.s3.us-west-1.amazonaws.com/placement_pins/NLO4RV5FNNV7JOAQ,3.223513
WFWFGGNUEIQIY,35.711647,139.695678,active,観音寺第3駐車場,東京都新宿区高田馬場3-34,"",15.0,true,true,1,scooter,0,"",5,8,7,standard,https://limebike-web-public-assets.s3.us-west-1.amazonaws.com/placement_pins/NNHP3KVG42V2BAZB,1.907748
365W75FO27JVD,35.698922,139.643895,active,ルミネ―ル藤乃木,東京都杉並区高円寺南3-10-3,"",15.0,true,true,3,scooter,0,"",2,3,2,standard,https://limebike-web-public-assets.s3.us-west-1.amazonaws.com/placement_pins/Z5BYIY3PBAOS6IXK,0.31221
HW5GVD5V42PVD,35.71892,139.618921,active,清水3丁目ポート,東京都杉並区清水3-27-23,"",20.0,true,true,3,scooter,0,"",2,3,2,standard,https://limebike-web-public-assets.s3.us-west-1.amazonaws.com/placement_pins/R5AZ3BW4XYMX7XJ3,0.0
VUTKDWHSTIGZN,35.628685,139.602042,active,メゾン世田谷 階段前,東京都世田谷区喜多見5-14-18,"",15.0,true,true,0,scooter,0,"",2,4,3,standard,https://limebike-web-public-assets.s3.us-west-1.amazonaws.com/placement_pins/ZTVOKU5R5QM462E2,0.0
HREQQGGI2CUYU,35.68913,139.785196,active,フィルパーク日本橋久松町,東京都中央区日本橋久松町10-8,"",15.0,true,true,4,scooter,0,"",3,5,4,standard,https://limebike-web-public-assets.s3.us-west-1.amazonaws.com/placement_pins/2NGML3IHDJH6A7ME,5.654908
P5MCNZGZSDAUF,35.710722,139.681586,active,ポプラハイツ 階段下,東京都中野区上高田1-1-38,"",15.0,true,true,2,scooter,0,"",2,3,2,standard,https://limebike-web-public-assets.s3.us-west-1.amazonaws.com/placement_pins/LP26YK7WIBYTSI5A,0.0
A6LIYHSYUJ7ZM,35.710701,139.666546,active,久栄マンション 駐車場,東京都中野区新井1-14-3,"",15.0,true,true,6,scooter,1,golden,6,11,6,standard,https://limebike-web-public-assets.s3.us-west-1.amazonaws.com/placement_pins/JSTL3BV74FZJQPUG,0.77259
IZIXMKFEKKHJV,35.711941,139.669744,active,ハイツサイトウポート,東京都中野区上高田2-45-11,"",15.0,true,true,3,scooter,0,"",2,4,3,standard,https://limebike-web-public-assets.s3.us-west-1.amazonaws.com/placement_pins/L3DKHJED2H3O5RM7,0.0
LFIP5RLTPWCKF,35.621919,139.711936,active,グランニール不動前,東京都品川区小山1-4-31,"",15.0,true,true,2,scooter,0,"",2,3,2,standard,https://limebike-web-public-assets.s3.us-west-1.amazonaws.com/placement_pins/BB3BBN3FORSWJWSX,0.0
LJMZLTH23YX5Z,35.73947,139.706984,active,山本米店,東京都豊島区池袋4-12-19,"",15.0,true,true,3,scooter,1,golden,2,4,3,standard,https://limebike-web-public-assets.s3.us-west-1.amazonaws.com/placement_pins/MZLUO7IXLUZ2U2PR,1.193741
53GNYFIA42R6B,35.730098,139.69002,active,キングハウス椎名町,東京都豊島区長崎2-23,"",15.0,true,true,1,scooter,1,golden,2,3,2,standard,https://limebike-web-public-assets.s3.us-west-1.amazonaws.com/placement_pins/D7LJCHCTHIGM6GFL,1.135549
4LTKJ2YGT5WOQ,35.730457,139.71789,active,デュオステージサンシャイン６０通り,東京都豊島区東池袋3-2-7,"",50.0,true,true,1,scooter,2,gr,2,3,3,standard,https://limebike-web-public-assets.s3.us-west-1.amazonaws.com/placement_pins/NB7IMEVO64XGKZQP,4.215478
22QUMLUF3WLE5,35.720094,139.811409,active,THE SORAPIA TOKYOポート,東京都墨田区向島5-11-11,"",15.0,true,true,1,scooter,0,"",3,5,4,standard,https://limebike-web-public-assets.s3.us-west-1.amazonaws.com/placement_pins/F4TZZXLY4G3J7YKE,1.374734
IGBIQQHNXGIDU,35.693807,139.816752,active,SRS KINSHICHO 入口,東京都墨田区江東橋4-6-2,"",15.0,true,true,3,scooter,1,golden,5,10,7,standard,https://limebike-web-public-assets.s3.us-west-1.amazonaws.com/placement_pins/FUROMOCHMKFZEJKO,1.275669
W6SMIOPAJOYBW,35.638699,139.694055,active,祐天寺１丁目車庫前,東京都目黒区祐天寺1-19-13,"",15.0,true,true,2,scooter,0,"",2,3,2,standard,https://limebike-web-public-assets.s3.us-west-1.amazonaws.com/placement_pins/JD2BEXSJHWD75C5Y,0.31464
QIYVEOXPZDUM2,35.628685,139.701927,active,グレース目黒,東京都目黒区下目黒5-25-15,"",15.0,true,true,0,scooter,0,"",3,5,4,standard,https://limebike-web-public-assets.s3.us-west-1.amazonaws.com/placement_pins/AWJNEBBN6MYJZHA7,0.0
IS253SJVA24N3,35.676089,139.670624,active,スカイプラザ笹塚 自動販売機横,東京都渋谷区笹塚2-1-10,"",15.0,true,true,2,scooter,0,"",2,4,3,standard,https://limebike-web-public-assets.s3.us-west-1.amazonaws.com/placement_pins/NZMZOATCGDFGIVKU,1.781437
EKPSY7UZVXK4S,35.67801,139.669839,active,ベルプラザ,東京都渋谷区笹塚3-2-3,"",15.0,true,true,0,scooter,0,"",2,4,3,standard,https://limebike-web-public-assets.s3.us-west-1.amazonaws.com/placement_pins/XYVZRAP2JDUVTKUU,2.966809
X2GFQZ4YLDNUX,35.66758,139.718426,active,セントラル青山 駐輪スペース,東京都港区南青山4-1-3,"",15.0,true,true,5,scooter,1,golden,5,8,8,standard,https://limebike-web-public-assets.s3.us-west-1.amazonaws.com/placement_pins/YGPXFNAGUSLH6CG2,2.260147
7COMIHWGZPEZT,35.695566,139.833725,active,カーサ大雄,東京都江東区亀戸7-5-6,"",15.0,true,true,7,scooter,0,"",5,8,8,standard,https://limebike-web-public-assets.s3.us-west-1.amazonaws.com/placement_pins/5KMXX7BAGJ6ODR5T,0.0
ZVBPYWIKFY72D,35.667538,139.718724,active,セントラル第一青山 自動販売機前,東京都港区南青山4-1-5,"",15.0,true,true,7,scooter,1,golden,4,6,6,standard,https://limebike-web-public-assets.s3.us-west-1.amazonaws.com/placement_pins/UK2RHYUGN32FAYC6,1.566344
L62XMDCAFHCXH,35.687679,139.697861,active,ケイアイ新宿ビル,東京都渋谷区代々木2-10-8,"",15.0,true,true,8,scooter,5,gr,5,8,6,standard,https://limebike-web-public-assets.s3.us-west-1.amazonaws.com/placement_pins/FBSRSQXVZIDC63YJ,2.92136
A2HJAAT2TTBU2,35.647399,139.720569,active,ＲＥＪルフレバイク駐車場 A・B,東京都渋谷区恵比寿2-25-4,"",20.0,true,true,3,scooter,0,"",7,11,11,standard,https://limebike-web-public-assets.s3.us-west-1.amazonaws.com/placement_pins/UPAU6LNPQQGVFXJD,0.0
MI2WTILZPGIYF,35.713553,139.701162,active,高田馬場3丁目 駐車場,東京都新宿区高田馬場3-12-24,"",20.0,true,true,5,scooter,16,gr,16,30,30,standard,https://limebike-web-public-assets.s3.us-west-1.amazonaws.com/placement_pins/HR7GMLTOQTWMW5CW,1.267249
RQ3EXB3R6IT3G,35.720717,139.615521,active,シャードマルシン駐車場,東京都杉並区下井草5-9-1,"",15.0,true,true,8,scooter,0,"",6,9,9,standard,https://limebike-web-public-assets.s3.us-west-1.amazonaws.com/placement_pins/NRQMC7UZWOHQ4GA2,0.0
6FHCQFTRDG435,35.678106,139.649703,active,リブレ入口,東京都杉並区和泉4-16-2,"",15.0,true,true,2,scooter,0,"",4,6,6,standard,https://limebike-web-public-assets.s3.us-west-1.amazonaws.com/placement_pins/2TPYKT4JWJ36M3JG,7.999586
3QIW3UHZYEZ2L,35.636777,139.607113,active,シャルマン砧駐車場,東京都世田谷区砧7-10-7,"",15.0,true,true,2,scooter,0,"",6,9,9,standard,https://limebike-web-public-assets.s3.us-west-1.amazonaws.com/placement_pins/RPSVY47ZWEGYEYIB,0.0
VU23SZID6Y33B,35.670566,139.656216,active,スカイプラザ松原 駐輪スペース,東京都世田谷区松原1-57-15,"",15.0,true,true,5,scooter,0,"",3,5,5,standard,https://limebike-web-public-assets.s3.us-west-1.amazonaws.com/placement_pins/UFSPYB72TOH3B2NQ,0.0
35RXNOFPHFC2C,35.692997,139.775668,active,神田Aビル駐車場,東京都千代田区岩本町2-2-7,"",40.0,true,true,6,scooter,0,"",7,12,8,standard,https://limebike-web-public-assets.s3.us-west-1.amazonaws.com/placement_pins/AWEW3BACXFNGSNFF,1.526049
4I6LYTOWF4SQE,35.571858,139.713949,active,グランフォートベル駐車場,東京都大田区西蒲田1-7-6,"",15.0,true,true,5,scooter,0,"",4,7,6,standard,https://limebike-web-public-assets.s3.us-west-1.amazonaws.com/placement_pins/MVV33VQM2O34UCEZ,0.0
WEXGDRAMTOBWK,35.592866,139.688482,active,東雪谷住宅 駐車スペース,東京都大田区東雪谷3-28-3,"",15.0,true,true,3,scooter,0,"",2,3,3,standard,https://limebike-web-public-assets.s3.us-west-1.amazonaws.com/placement_pins/36FCBQ6HFMOW4KAZ,0.0
DAG2GAGAG2K5I,35.589449,139.692631,active,東雪谷5丁目ポート,東京都大田区東雪谷5-36-17,"",15.0,true,true,4,scooter,0,"",4,6,6,standard,https://limebike-web-public-assets.s3.us-west-1.amazonaws.com/placement_pins/MYXK3T7C5FVGYE63,0.0
HME5O4X6AY2XL,35.704218,139.681118,active,上の原駐車場 E,東京都中野区東中野2-21-15,"",15.0,true,true,4,scooter,4,gr,4,6,6,standard,https://limebike-web-public-assets.s3.us-west-1.amazonaws.com/placement_pins/ZJX6WHH2UXSK5BJB,0.034875
GZ6V6CWNRESG7,35.742236,139.707381,active,熊野町駐車場,東京都板橋区熊野町14-1,"",15.0,true,true,4,scooter,0,"",3,6,5,standard,https://limebike-web-public-assets.s3.us-west-1.amazonaws.com/placement_pins/GW5PZ2M3VT46IMBL,4.817625
4LCLOXH2KGG4S,35.73929,139.711464,active,天心民泊②,東京都豊島区池袋本町1-18-7,"",15.0,true,true,1,scooter,0,"",3,4,4,standard,https://limebike-web-public-assets.s3.us-west-1.amazonaws.com/placement_pins/ZTCN3KL2L7LLMMDK,0.0
BBTYRMTOL7UF6,35.734731,139.705074,active,天心民泊①,東京都豊島区池袋3-26-9,"",15.0,true,true,0,scooter,0,"",2,3,3,standard,https://limebike-web-public-assets.s3.us-west-1.amazonaws.com/placement_pins/P3TNZ35NG6P6XAHX,0.501967
7ZNR6MWKJC7OK,35.714033,139.817454,active,押上住宅 駐車スペース,東京都墨田区押上3-7-4,"",15.0,true,true,4,scooter,1,golden,4,6,6,standard,https://limebike-web-public-assets.s3.us-west-1.amazonaws.com/placement_pins/P7EJCEPJPAAPCXHY,0.0
NJUNBL63NIZRC,35.713866,139.817146,active,押上３丁目貸駐車場,東京都墨田区押上3-7-1,"",15.0,true,true,4,scooter,1,golden,5,8,8,standard,https://limebike-web-public-assets.s3.us-west-1.amazonaws.com/placement_pins/VFQRJKS4MMGQ3IHZ,0.0
OOM2OYMXCMI4K,35.62375,139.696596,active,目黒本町4丁目ポート,東京都目黒区目黒本町4-9-3,"",20.0,true,true,3,scooter,3,gr,3,4,4,standard,https://limebike-web-public-assets.s3.us-west-1.amazonaws.com/placement_pins/E2WMQBECDFNN4UXP,0.042198
G77DTGUILHW5Y,35.69112,139.82445,active,コーポ高橋,東京都江東区大島2-24-5,"",15.0,true,true,5,scooter,0,"",4,7,7,standard,https://limebike-web-public-assets.s3.us-west-1.amazonaws.com/placement_pins/NYXFZM6SXQOSWOQE,0.0
5SVAMELRUUVMH,35.728131,139.786431,active,スカイパレス三ノ輪 入口横駐輪場,東京都荒川区東日暮里2-8-9,"",20.0,true,true,0,scooter,0,"",5,8,8,standard,https://limebike-web-public-assets.s3.us-west-1.amazonaws.com/placement_pins/D6O3FMCZAM6UEP6U,0.0
X33LWRJARIVJE,35.681947,139.678495,active,カプチーノ渋谷正面側,東京都渋谷区本町6-18-1,"",15.0,true,true,4,scooter,0,"",5,8,8,standard,https://limebike-web-public-assets.s3.us-west-1.amazonaws.com/placement_pins/XUW64Z4N3VKPXG2X,0.391533
AEGL53BI6NDNV,35.681919,139.678414,active,カプチーノ渋谷裏側,東京都渋谷区本町6-18-1,"",15.0,true,true,2,scooter,0,"",5,8,8,standard,https://limebike-web-public-assets.s3.us-west-1.amazonaws.com/placement_pins/VV33E6KTAP52J7KI,0.0
VWHIE4OH22INJ,35.688371,139.68019,active,ToYo Homes 西新宿,東京都渋谷区本町4-18-3,"",20.0,true,true,7,scooter,1,golden,6,9,9,standard,https://limebike-web-public-assets.s3.us-west-1.amazonaws.com/placement_pins/UIEKZOCQOFNHFK5Z,2.983444
DNYLJRPUJQYLA,35.716836,139.693383,active,落合スィート,東京都新宿区中落合1-1-20,"",15.0,true,true,1,scooter,0,"",5,15,13,standard,https://limebike-web-public-assets.s3.us-west-1.amazonaws.com/placement_pins/U4TP4F5BUVQALNAS,2.008305
ROWGRPFJ2TLMD,35.714442,139.703133,active,高田馬場3丁目ポート,東京都新宿区高田馬場3-4-17,"",15.0,true,true,5,scooter,6,gr,6,10,10,standard,https://limebike-web-public-assets.s3.us-west-1.amazonaws.com/placement_pins/AWTEKZHBJI5PFX5H,2.239899
BBLX444HTNXAO,35.698409,139.709784,active,新宿7丁目ポート②,東京都新宿区新宿7-26-61,"",15.0,true,true,10,scooter,1,golden,7,12,12,standard,https://limebike-web-public-assets.s3.us-west-1.amazonaws.com/placement_pins/FPF4SNX4VR72IYXI,1.854349
WEBMSSVZZI5HW,35.67318,139.601899,active,スカイピア北烏山建物側面通路,東京都世田谷区北烏山3-3,"",15.0,true,true,7,scooter,0,"",5,8,6,standard,https://limebike-web-public-assets.s3.us-west-1.amazonaws.com/placement_pins/KLGBBTKO747YPLBP,0.0
OE3DKGMKKLRFN,35.658329,139.664991,active,代沢5丁目ポート,東京都世田谷区世田谷区代沢5-24-3,"",15.0,true,true,2,scooter,0,"",7,11,11,standard,https://limebike-web-public-assets.s3.us-west-1.amazonaws.com/placement_pins/R67RTSMPPEC6PYK6,0.0
NAUGF6ACL74JM,35.680914,139.587699,active,川瀬コーポラス 裏側駐輪スペース,東京都世田谷区北烏山7-30-25,"",15.0,true,true,2,scooter,0,"",9,15,15,standard,https://limebike-web-public-assets.s3.us-west-1.amazonaws.com/placement_pins/MMNERXG4VPN7YRRP,0.0
BER3KE5LSTZ7N,35.584869,139.68171,active,HW . HILLS(御嶽山) 入口右側,東京都大田区北嶺町32-6,"",15.0,true,true,0,scooter,0,"",2,3,3,standard,https://limebike-web-public-assets.s3.us-west-1.amazonaws.com/placement_pins/UJDDIJUT22KDKLJV,0.0
CPZ4U3K3XLO6L,35.575682,139.683637,active,ショパン鵜の木 入口右側,東京都大田区鵜の木1-19-10,"",15.0,true,true,5,scooter,0,"",6,9,9,standard,https://limebike-web-public-assets.s3.us-west-1.amazonaws.com/placement_pins/44XJVZIPTS3533P4,0.0
W7N7WNZJWF7WI,35.709569,139.668485,active,ウチヤ中野マンション 自動販売機横,東京都中野区中野5-40-12,"",15.0,true,true,0,scooter,0,"",5,8,8,standard,https://limebike-web-public-assets.s3.us-west-1.amazonaws.com/placement_pins/N2OK3BGJXAT3C6AE,0.971136
BLGSVESJFVIEI,35.707891,139.683928,active,建物正面駐車場,東京都中野区東中野4-7-11,"",30.0,true,true,4,scooter,0,"",7,11,9,standard,https://limebike-web-public-assets.s3.us-west-1.amazonaws.com/placement_pins/WLA2WJ3UXINYYENV,0.907771
4G2HD6W5YECPE,35.716306,139.645818,active,ライフピア優建物正面,東京都中野区若宮2-15-11,"",15.0,true,true,0,scooter,0,"",2,3,3,standard,https://limebike-web-public-assets.s3.us-west-1.amazonaws.com/placement_pins/AQIFV7BYJQSIAB5V,0.0
YQ5O36EPFETPY,35.707162,139.668558,active,ユーコーポ,東京都中野区中野5-34-17,"",15.0,true,true,8,scooter,0,"",18,30,30,standard,https://limebike-web-public-assets.s3.us-west-1.amazonaws.com/placement_pins/4LDK63VJFH3BLASS,0.185692
6JSI2GMWEK4RB,35.74668,139.70002,active,DECOR BLOCCO OYAMA Uno,東京都板橋区大山金井町56-7,"",15.0,true,true,3,scooter,0,"",2,3,2,standard,https://limebike-web-public-assets.s3.us-west-1.amazonaws.com/placement_pins/5ULIYGZBB6RWP6ZP,0.0
S62SUF4N7WUSF,35.624865,139.709307,active,ウィンベル不動前第２ 自動販売機脇,東京都品川区西五反田4-16-15,"",15.0,true,true,1,scooter,0,"",2,3,3,standard,https://limebike-web-public-assets.s3.us-west-1.amazonaws.com/placement_pins/XSP3UK4U5VPTIPXY,0.0
ARLNC33M53PRA,35.612937,139.703015,active,MIKIHOME 側面,東京都品川区荏原6-4-14,"",15.0,true,true,2,scooter,0,"",2,3,3,standard,https://limebike-web-public-assets.s3.us-west-1.amazonaws.com/placement_pins/LPYAMVU66ZPJQMNA,0.0
YDFJE4SB3UEL2,35.630468,139.729725,active,ラミエ高輪台建物正面,東京都品川区東五反田3-2-2,"",15.0,true,true,0,scooter,1,golden,2,3,3,standard,https://limebike-web-public-assets.s3.us-west-1.amazonaws.com/placement_pins/MNQ65RVBVRUG2NVS,1.663199
NVJ6EBLJDXCKE,35.736202,139.736989,active,巣鴨ダイヤエステーツ,東京都豊島区巣鴨2-13-7,"",15.0,true,true,0,scooter,0,"",2,3,3,standard,https://limebike-web-public-assets.s3.us-west-1.amazonaws.com/placement_pins/MFA7GP6SMIOCN3TO,0.15174
MMBQDBGO6I3UB,35.744329,139.70988,active,アプローズ池袋本町,東京都豊島区池袋本町2-39-13,"",15.0,true,true,5,scooter,0,"",3,5,3,standard,https://limebike-web-public-assets.s3.us-west-1.amazonaws.com/placement_pins/JMFBYRAZ4PUO4KLA,0.0
U46R3DEEWCDEA,35.743747,139.71497,active,池袋本町4丁目自転車置き場前,東京都豊島区池袋本町4-33-3,"",15.0,true,true,2,scooter,0,"",1,2,2,standard,https://limebike-web-public-assets.s3.us-west-1.amazonaws.com/placement_pins/HBZYEECDCOJZTZRO,0.0
2LY5ZZJL3AW22,35.695492,139.807942,active,クーベルチュール錦糸町Ⅱ,東京都墨田区緑4-24-2,"",15.0,true,true,2,scooter,0,"",2,3,3,standard,https://limebike-web-public-assets.s3.us-west-1.amazonaws.com/placement_pins/23YJG23MJ3EKA5TA,0.475236
OR4DGNVTKHMYX,35.723925,139.821275,active,東向島6丁目駐輪スペース,東京都墨田区東向島6-33-12,"",15.0,true,true,4,scooter,0,"",3,5,5,standard,https://limebike-web-public-assets.s3.us-west-1.amazonaws.com/placement_pins/FGF2AHR5TAIVKVPO,0.0
AW5XBCNJF3TMW,35.643301,139.701903,active,中目黒1丁目ポート,東京都目黒区中目黒1-9-12,"",15.0,true,true,1,scooter,1,golden,15,26,26,standard,https://limebike-web-public-assets.s3.us-west-1.amazonaws.com/placement_pins/NPYJOOBZZK4MQNOH,0.039386
4UEOE7RUTO6ZF,35.626026,139.695396,active,和貴レジデンス,東京都目黒区目黒本町1-10-17,"",15.0,true,true,9,scooter,0,"",7,11,9,standard,https://limebike-web-public-assets.s3.us-west-1.amazonaws.com/placement_pins/3YJZ3P6MTF2N2TOE,0.0
HJHBXLPGC3O7U,35.672641,139.669259,active,笹塚１丁目 駐車・駐輪スペース,東京都渋谷区笹塚1-19-11,"",20.0,true,true,4,scooter,0,"",3,4,3,standard,https://limebike-web-public-assets.s3.us-west-1.amazonaws.com/placement_pins/QHUQCGULIHPTTCXF,2.149456
Y3SRDOEW2CCGC,35.68521,139.695982,active,第一村上ビル,東京都渋谷区代々木2-38-11,"",30.0,true,true,8,scooter,1,golden,7,12,12,standard,https://limebike-web-public-assets.s3.us-west-1.amazonaws.com/placement_pins/QOUFQ2NYXW7GUETA,2.524859
5NKAEYNDTHGEJ,35.702081,139.741292,active,松本ハイツ 側面,東京都新宿区神楽坂3--1,"",15.0,true,true,3,scooter,0,"",3,5,5,standard,https://limebike-web-public-assets.s3.us-west-1.amazonaws.com/placement_pins/E3AGEYFAQP2WUELQ,2.326646
IXKQ7S22GG5GT,35.70396,139.732562,active,プラザマンション,東京都新宿区矢来町57-3,"",15.0,true,true,5,scooter,0,"",4,6,6,standard,https://limebike-web-public-assets.s3.us-west-1.amazonaws.com/placement_pins/QV5BTD7UMJOG2LHY,0.307578
TQYEVFTGDBOYZ,35.684153,139.656955,active,林ビル建物裏側花壇右,東京都杉並区方南2-23-6,"",22.0,true,true,2,scooter,0,"",4,6,6,standard,https://limebike-web-public-assets.s3.us-west-1.amazonaws.com/placement_pins/EY3TKKIHP5FTTL6Z,0.0
MHWH5HTDZZQUJ,35.69897,139.649695,active,高円寺南２丁目個人宅 建物入口左側,東京都杉並区高円寺南2-13-11,"",15.0,true,true,6,scooter,0,"",5,10,6,standard,https://limebike-web-public-assets.s3.us-west-1.amazonaws.com/placement_pins/7O32SIILZZ3FTS4X,0.0
JT73GV32HUX6G,35.671009,139.627326,active,KAMIKITA HOUSE 駐輪場,東京都杉並区下高井戸4-6,"",15.0,true,true,0,scooter,0,"",3,5,5,standard,https://limebike-web-public-assets.s3.us-west-1.amazonaws.com/placement_pins/3ZGVSOQZNQN25XTN,0.0
FVLP3HIKOL3I3,35.646075,139.674943,active,サンハウス太子堂 自動販売機横,東京都世田谷区太子堂2-1-8,"",15.0,true,true,3,scooter,0,"",4,6,6,standard,https://limebike-web-public-assets.s3.us-west-1.amazonaws.com/placement_pins/TQ6OKSRPMUGZ5BWR,0.78765
JWJOTYEAIOR4N,35.629645,139.645103,active,リアンエスポワール 入口右側,東京都世田谷区桜新町1-9-25,"",24.0,true,true,7,scooter,0,"",7,12,10,standard,https://limebike-web-public-assets.s3.us-west-1.amazonaws.com/placement_pins/PAHSU2AAG72UEPHH,0.0
K5LXMFPP2UDZA,35.581363,139.675182,active,アピチェ田園調布,東京都大田区田園調布南18-7,"",15.0,true,true,6,scooter,0,"",5,8,8,standard,https://limebike-web-public-assets.s3.us-west-1.amazonaws.com/placement_pins/W73NYMXICFVXTVV7,0.0
KDIREFKHZSEF4,35.549862,139.743842,active,リンゲージ羽田,東京都大田区羽田1-11-17,"",15.0,true,true,2,scooter,1,golden,2,3,3,standard,https://limebike-web-public-assets.s3.us-west-1.amazonaws.com/placement_pins/WUA3EPYVRGBLL5Z6,0.0
RVRHB525KLJJC,35.717871,139.654633,active,メゾン・ド・ソレイユ駐車場 No.4,東京都中野区野方3-20-3,"",15.0,true,true,2,scooter,0,"",6,10,10,standard,https://limebike-web-public-assets.s3.us-west-1.amazonaws.com/placement_pins/DQV5NFWCMUQ5A3QJ,0.0
AE4NH3VYIUS3T,35.745656,139.685107,active,サンヒルズ向原裏側,東京都板橋区向原3-2-4,"",15.0,true,true,3,scooter,0,"",2,3,3,standard,https://limebike-web-public-assets.s3.us-west-1.amazonaws.com/placement_pins/7W4DBB26AH3WSBQ7,0.0
NA7QY2OBLDIOS,35.745324,139.685174,active,サンヒルズ向原表側,東京都板橋区向原3-2-4,"",15.0,true,true,5,scooter,1,golden,5,8,8,standard,https://limebike-web-public-assets.s3.us-west-1.amazonaws.com/placement_pins/EKZPB2S3F7T3AGR7,0.09885
MO2S62W37JG76,35.709788,139.75372,active,本郷4丁目住宅正面,東京都文京区本郷4-17-8,"",15.0,true,true,5,scooter,1,golden,4,6,6,standard,https://limebike-web-public-assets.s3.us-west-1.amazonaws.com/placement_pins/ZJI5M4E2L7QP6CAR,1.25503
A7SEWE33DNXRO,35.727569,139.701455,active,クレアメゾン駐車場 1,東京都豊島区西池袋4-8−3,"",15.0,true,true,8,scooter,6,gr,6,9,9,standard,https://limebike-web-public-assets.s3.us-west-1.amazonaws.com/placement_pins/U25O73XSKZSF5TSC,0.811678
TIGDESHSELIJZ,35.73744,139.730371,active,ロイヤルパーシモン正面,東京都豊島区巣鴨4-11-10,"",15.0,true,true,1,scooter,1,golden,2,3,3,standard,https://limebike-web-public-assets.s3.us-west-1.amazonaws.com/placement_pins/MI4DX34CYLV7WSNP,0.0
SKGAY4VNPSYXX,35.73191,139.735503,active,北大塚1丁目自動販売機横,東京都豊島区北大塚1-2-14,"",15.0,true,true,1,scooter,0,"",6,9,9,standard,https://limebike-web-public-assets.s3.us-west-1.amazonaws.com/placement_pins/3GJLF3DK4DUXPQSU,16.53779
JXHESGHKH2QZC,35.642114,139.693231,active,上目黒４丁目 入口横,東京都目黒区上目黒4-1-16,"",15.0,true,true,3,scooter,1,golden,2,3,3,standard,https://limebike-web-public-assets.s3.us-west-1.amazonaws.com/placement_pins/QXGLYB5DXLD6ELII,1.566684
GGA4SUAIYUKJX,35.620966,139.695434,active,目黒本町６丁目個人宅,東京都目黒区目黒本町6-13-5,"",15.0,true,true,6,scooter,0,"",4,6,6,standard,https://limebike-web-public-assets.s3.us-west-1.amazonaws.com/placement_pins/EQNATH2VF64CJ4EH,0.0
Y4L7GYUC6KJLX,35.735005,139.646396,active,ビルネンハイム,東京都練馬区中村北1-17-3,"",15.0,true,true,3,scooter,0,"",2,3,3,standard,https://limebike-web-public-assets.s3.us-west-1.amazonaws.com/placement_pins/GUHPL5DGIWRTECUS,0.0
N5FQQXUHYUYNN,35.659268,139.665975,active,グレイス下北沢,東京都世田谷区代沢5-33-9,"",15.0,true,true,12,scooter,5,gr,5,15,15,standard,https://limebike-web-public-assets.s3.us-west-1.amazonaws.com/placement_pins/TFPIDAEFOOLAFQPZ,1.612342
TKCZAAEIBVWN2,35.687366,139.795593,active,HW.HILLS(新大橋),東京都江東区新大橋3-5-4,"",20.0,true,true,9,scooter,0,"",9,15,15,standard,https://limebike-web-public-assets.s3.us-west-1.amazonaws.com/placement_pins/I2HCTUOJZ5FU3VI2,0.0
7KLWLMQC6BRYN,35.65059,139.617147,active,グランジュール千歳,東京都世田谷区船橋2-9-4,"",15.0,true,true,2,scooter,0,"",8,14,11,standard,https://limebike-web-public-assets.s3.us-west-1.amazonaws.com/placement_pins/MRV3QCKFYD5EH3RZ,0.0
6WIG7QIBBINBC,35.676592,139.783051,active,HW.HILLS(新川),東京都中央区新川1-14-11,"",25.0,true,true,2,scooter,0,"",7,11,7,standard,https://limebike-web-public-assets.s3.us-west-1.amazonaws.com/placement_pins/SHXW3QZJZYSZKUE3,0.0
IDMES2Q2ECJWT,35.706605,139.834491,active,ハイムウチダ,東京都墨田区立花3-19-8,"",15.0,true,true,0,scooter,0,"",2,3,3,standard,https://limebike-web-public-assets.s3.us-west-1.amazonaws.com/placement_pins/3774FM6ANBDOTGUQ,0.0
KOIR7FKV44NEU,35.68076,139.794458,active,清澄１丁目ポート,東京都江東区清澄1-3-17,"",15.0,true,true,2,scooter,1,golden,2,3,3,standard,https://limebike-web-public-assets.s3.us-west-1.amazonaws.com/placement_pins/KHIVBVFN7QDQOWKW,0.945276
5D24HE5FSDNGN,35.685427,139.679922,active,SYHouse駐車場,東京都渋谷区本町4-38-8,"",15.0,true,true,6,scooter,1,golden,5,8,8,standard,https://limebike-web-public-assets.s3.us-west-1.amazonaws.com/placement_pins/3XT2DMVQNKD7SHVJ,1.228897
YRUA27SHKNKXE,35.681368,139.696094,active,DEEPFOREST 側面駐車場,東京都渋谷区代々木3-58-7,"",15.0,true,true,2,scooter,1,golden,5,8,8,standard,https://limebike-web-public-assets.s3.us-west-1.amazonaws.com/placement_pins/Q5Y5TMETQAKAQDDK,1.089247
HDF2ZP2TA4HV6,35.661465,139.699314,active,TIP.X TOKYO渋谷 側面,東京都渋谷区宇田川町16-4,"",50.0,true,true,1,scooter,0,"",3,4,3,standard,https://limebike-web-public-assets.s3.us-west-1.amazonaws.com/placement_pins/XTBKOQ2VNXRSV6TY,5.478384
3K7CSCEOWZ2WQ,35.703869,139.630482,active,カーザアゼリア,東京都杉並区阿佐谷南3-47-5,"",15.0,true,true,7,scooter,0,"",6,10,10,standard,https://limebike-web-public-assets.s3.us-west-1.amazonaws.com/placement_pins/KZSLUTNQO4GCPKO3,0.0
2LH42VOF75T4E,35.70091,139.65847,active,高円寺南1丁目ポート,東京都杉並区高円寺南1-31-11,"",15.0,true,true,2,scooter,3,gr,3,4,4,standard,https://limebike-web-public-assets.s3.us-west-1.amazonaws.com/placement_pins/WUGFDKLMZ32CZDRS,1.194322
QPRQMYMRWMINS,35.703726,139.646329,active,高円寺南3丁目個人宅 駐車場,東京都杉並区高円寺南3-43-12,"",20.0,true,true,4,scooter,0,"",4,7,7,standard,https://limebike-web-public-assets.s3.us-west-1.amazonaws.com/placement_pins/MBJAIGQQ667KBQXD,0.0
GDHPEKTIJ6Q2A,35.636206,139.61344,active,リック成城駐車場,東京都世田谷区砧3-9-24,"",20.0,true,true,7,scooter,0,"",5,8,8,standard,https://limebike-web-public-assets.s3.us-west-1.amazonaws.com/placement_pins/TC64BGNOKED3IO3A,0.0
ILTAT67HXE5HC,35.645657,139.662046,active,若林1丁目ポート 側面,東京都世田谷区若林1-11-5,"",20.0,true,true,3,scooter,1,golden,5,9,9,standard,https://limebike-web-public-assets.s3.us-west-1.amazonaws.com/placement_pins/KTDHI3NHYNC5HZBD,0.142727
C6KLJK625HFAG,35.642213,139.622658,active,桜丘4丁目駐車場,東京都世田谷区桜丘4-19-43,"",20.0,true,true,6,scooter,1,golden,6,9,9,standard,https://limebike-web-public-assets.s3.us-west-1.amazonaws.com/placement_pins/LJIL5WIHR7NE3RP3,0.0
AOYR6OB3DT4YT,35.582354,139.733786,active,大森北3丁目自販機横ポート,東京都大田区大森北3-33-11,"",15.0,true,true,2,scooter,0,"",2,3,3,standard,https://limebike-web-public-assets.s3.us-west-1.amazonaws.com/placement_pins/LF53KBPHG52LTBCV,0.0
U2WB2GB2ZFPSW,35.57416,139.70601,active,アピチェ池上,東京都大田区池上4-17-7,"",15.0,true,true,6,scooter,0,"",5,8,8,standard,https://limebike-web-public-assets.s3.us-west-1.amazonaws.com/placement_pins/RGOW5OMYGKMPODDK,0.0
YYZZVIEARYOOU,35.570839,139.729304,active,大森西5丁目個人宅駐車場,東京都大田区大森西5-16-9,"",15.0,true,true,3,scooter,0,"",7,12,12,standard,https://limebike-web-public-assets.s3.us-west-1.amazonaws.com/placement_pins/NAYGSVFGSCUE6LLI,0.0
PMHXZDPOUSCQA,35.577846,139.701752,active,大田区池上２丁目駐車スペース,東京都大田区池上2-17-17,"",20.0,true,true,3,scooter,0,"",4,6,6,standard,https://limebike-web-public-assets.s3.us-west-1.amazonaws.com/placement_pins/UMBUVINC6VAQUUK7,0.0
HTN4WLA3YTUTM,35.580312,139.732712,active,GuestHouse YOU&I平和島ポート,東京都大田区大森北6-4-27,"",15.0,true,true,4,scooter,0,"",3,4,4,standard,https://limebike-web-public-assets.s3.us-west-1.amazonaws.com/placement_pins/6CPLISFHBWK54T5S,0.0
K34ZJOJRYWG2M,35.577545,139.733901,active,大森西２丁目住宅駐輪スペース,東京都大田区大森西2-10-11,"",15.0,true,true,2,scooter,0,"",2,3,3,standard,https://limebike-web-public-assets.s3.us-west-1.amazonaws.com/placement_pins/T57TKEKWAS4XAZ4S,0.0
TNBN4VWOGURUG,35.574233,139.737118,active,大田区大森東２丁目個人宅 自販機横,東京都大田区大森東2-32-2,"",15.0,true,true,3,scooter,0,"",2,3,3,standard,https://limebike-web-public-assets.s3.us-west-1.amazonaws.com/placement_pins/EAUS5R5VH76GIOYP,0.0
LOA2TB57CR3ZI,35.576742,139.733281,active,大森西２丁目ポート,東京都大田区大森西2-11-5,"",15.0,true,true,3,scooter,0,"",2,3,3,standard,https://limebike-web-public-assets.s3.us-west-1.amazonaws.com/placement_pins/JZ77NPGJPO4QLV6U,0.0
RUPCAKRC3UHC3,35.553329,139.718927,active,アルページュ 側面,東京都大田区東六郷1-13-7,"",15.0,true,true,4,scooter,0,"",3,5,5,standard,https://limebike-web-public-assets.s3.us-west-1.amazonaws.com/placement_pins/PT45Z63S6WBPJ7ZG,0.0
XAOUPM7HT64AC,35.570851,139.735919,active,大森東３丁目ポート,東京都大田区大森東3-5-23,"",15.0,true,true,3,scooter,0,"",2,3,3,standard,https://limebike-web-public-assets.s3.us-west-1.amazonaws.com/placement_pins/AH7KJPC6RGANW6YW,0.0
AMQD25ZYQNB7O,35.712138,139.643196,active,大和町３丁目 建物横空きスペース,東京都中野区大和町3-44-17,"",15.0,true,true,0,scooter,0,"",3,4,4,standard,https://limebike-web-public-assets.s3.us-west-1.amazonaws.com/placement_pins/UZAANEQXOSYRG7KC,0.0
DBTAEKX5NVUEH,35.708954,139.732944,active,タケダビル,東京都文京区関口1-13-12,"",40.0,true,true,4,scooter,0,"",4,7,5,standard,https://limebike-web-public-assets.s3.us-west-1.amazonaws.com/placement_pins/UEJE54X4HNP25ZYB,0.082187
SJ3XHPCL5UOOE,35.724837,139.722831,active,文京区大塚６丁目個人宅駐車場,東京都文京区大塚6-35-1,"",40.0,true,true,2,scooter,0,"",8,21,15,standard,https://limebike-web-public-assets.s3.us-west-1.amazonaws.com/placement_pins/POFGCB724IXSJEHJ,0.455557
QVN3EW22KOFLR,35.734113,139.754813,active,ヴィラアシーナ駐車場,東京都文京区本駒込5-46-12,"",15.0,true,true,9,scooter,0,"",6,10,8,standard,https://limebike-web-public-assets.s3.us-west-1.amazonaws.com/placement_pins/3TG35I33IROM46FF,0.0
JSO5RZNRTYOS2,35.733207,139.720113,active,グレース米山,東京都豊島区東池袋2-52-9,"",15.0,true,true,2,scooter,0,"",3,4,4,standard,https://limebike-web-public-assets.s3.us-west-1.amazonaws.com/placement_pins/5A5FLPFQ6HDFC2CY,0.0
7OE6UGTR2PUZG,35.554327,139.738344,active,西糀谷倉庫ディプロイ用ポート,東京都大田区西糀谷検証用,"",15.0,true,true,0,scooter,5,gr,5,6,6,standard,"",0.0
CGYWGOUBXK3CQ,35.688343,139.823491,active,プレミアムバリュー大島 正面,東京都江東区大島1−11−5,"",15.0,true,true,7,scooter,0,"",7,12,12,standard,https://limebike-web-public-assets.s3.us-west-1.amazonaws.com/placement_pins/VLADTRGRCVEUA3SQ,0.0
YDTJTOJKKK3NA,35.648572,139.801746,active,イオン東雲店,東京都江東区東雲1-9-10,"",50.0,true,true,1,scooter,0,"",11,22,17,standard,https://limebike-web-public-assets.s3.us-west-1.amazonaws.com/placement_pins/2A5ZA3DOUUDZZ567,1.260906
P6RXQVAP5VZV4,35.649319,139.750314,active,ラグーナ三田 バイク駐車場,東京都港区芝4-2-10,"",30.0,true,true,1,scooter,0,"",2,3,3,standard,https://limebike-web-public-assets.s3.us-west-1.amazonaws.com/placement_pins/V2W7A3TBFTKSROJ3,8.824585
4QIVYMIBY56GO,35.651603,139.706135,active,MKK代官山入り口前,東京都渋谷区恵比寿西2-13-1,"",15.0,true,true,5,scooter,4,gr,4,5,5,standard,https://limebike-web-public-assets.s3.us-west-1.amazonaws.com/placement_pins/FI75NDGG7NBZONJ5,1.745875
5RVMFWM3T23JU,35.682839,139.676748,active,FUJISTA幡ヶ谷I 駐車場,東京都渋谷区本町5-31-7,"",15.0,true,true,0,scooter,0,"",3,5,5,standard,https://limebike-web-public-assets.s3.us-west-1.amazonaws.com/placement_pins/PR3RACMJZ4CPVKJZ,0.16845
PEUEGSV64NRCY,35.690439,139.714354,active,メビウス新宿御苑,東京都新宿区新宿1-25-13,"",35.0,true,true,9,scooter,0,"",7,12,10,standard,https://limebike-web-public-assets.s3.us-west-1.amazonaws.com/placement_pins/2IB6EP23FIHP4ZSA,1.276147
JGOQOZMTK5U6T,35.709099,139.698325,active,カームハウス近藤,東京都新宿区高田馬場4-32-23,"",15.0,true,true,9,scooter,1,golden,20,30,30,standard,https://limebike-web-public-assets.s3.us-west-1.amazonaws.com/placement_pins/UQS4BLGHIFPJH4VF,2.45349
FEMZA6XFKFVOR,35.716321,139.635413,active,下井草1丁目個人宅ポート,東京都杉並区下井草1-15-3,"",15.0,true,true,2,scooter,0,"",2,3,3,standard,https://limebike-web-public-assets.s3.us-west-1.amazonaws.com/placement_pins/HTL7YNDK23JECF3Y,0.0
5LIKOBHP5DOOX,35.694331,139.655273,active,和田3丁目ポート,東京都杉並区和田3-29-6,"",15.0,true,true,0,scooter,0,"",2,3,3,standard,https://limebike-web-public-assets.s3.us-west-1.amazonaws.com/placement_pins/O42U5OIXXCMNXQJ7,0.0
MLHC3C3JHYSOM,35.642242,139.671995,active,"Temple University, Japan Campus",東京都世田谷区三軒茶屋1-35-7,"",15.0,true,true,3,scooter,0,"",4,8,7,standard,https://limebike-web-public-assets.s3.us-west-1.amazonaws.com/placement_pins/ERKW46Y26JXAUZJB,0.925117
LXN5ZOL36SEPT,35.723253,139.789143,active,台東区竜泉１丁目個人宅,東京都台東区竜泉1-18-2,"",15.0,true,true,2,scooter,0,"",4,7,5,standard,https://limebike-web-public-assets.s3.us-west-1.amazonaws.com/placement_pins/2BPQKZEXKE5DZQJW,0.428313
GV4BTLMYKUT3F,35.721856,139.79512,active,エースイン浅草,東京都台東区千束3-1-10,"",15.0,true,true,6,scooter,1,golden,5,8,8,standard,https://limebike-web-public-assets.s3.us-west-1.amazonaws.com/placement_pins/ACQKTVWCQNQJZAVW,2.096261
TQ3LM4MVNRNN7,35.568894,139.71732,active,相馬西蒲田マンション バイク置き場,東京都大田区西蒲田4-17-1,"",25.0,true,true,3,scooter,1,golden,4,7,7,standard,https://limebike-web-public-assets.s3.us-west-1.amazonaws.com/placement_pins/37E2C36QTSMEDUA6,0.232847
J2O3HHNCS5OIR,35.551783,139.739041,active,ヴァンベール晃永２,東京都大田区萩中3-9-2,"",15.0,true,true,5,scooter,0,"",8,13,12,standard,https://limebike-web-public-assets.s3.us-west-1.amazonaws.com/placement_pins/CBENHVAHUT3UIRH6,0.1026
OK6VXK37HAQUZ,35.600849,139.681272,active,石川町２丁目ポート,東京都大田区石川町2-14-4,"",15.0,true,true,4,scooter,0,"",3,4,4,standard,https://limebike-web-public-assets.s3.us-west-1.amazonaws.com/placement_pins/TN3O7NFK6S6PKXSF,0.0
YCV4HI6RGFBZY,35.716784,139.676222,active,上高田5丁目ポート,東京都中野区上高田5-22-10,"",20.0,true,true,3,scooter,0,"",2,3,3,standard,https://limebike-web-public-assets.s3.us-west-1.amazonaws.com/placement_pins/MDQJZ3QDOABWM44H,0.0
P3Z6Z7OCIKIJQ,35.729433,139.704946,active,ラフィネYS駐車場,東京都豊島区西池袋3-17-18,"",40.0,true,true,12,scooter,1,golden,10,17,16,standard,https://limebike-web-public-assets.s3.us-west-1.amazonaws.com/placement_pins/ZYW3JUUJOW7GXFVR,1.173274
F2RA5DM4BYKVG,35.659192,139.757356,active,三喜車庫,東京都港区浜松町1-6-16,"",35.0,true,true,9,scooter,1,golden,6,10,8,standard,https://limebike-web-public-assets.s3.us-west-1.amazonaws.com/placement_pins/IBB5D3ECXUMAKJ6N,1.255049
PWVGB4MI7ZBYH,35.716342,139.695013,active,ルーブル高田馬場 弐番館 川沿い壁側,東京都新宿区下落合1-15-10ルーブル高田馬場弐番館,"",15.0,true,true,1,scooter,0,"",6,12,9,standard,https://limebike-web-public-assets.s3.us-west-1.amazonaws.com/placement_pins/SKQQBCJDM2RK3C4R,2.508645
APDA2VR6QSCRA,35.716512,139.694718,active,ルーブル高田馬場 弐番館 屋外駐輪場,東京都新宿区下落合1-15-10ルーブル高田馬場弐番館,"",15.0,true,true,4,scooter,0,"",5,12,12,standard,https://limebike-web-public-assets.s3.us-west-1.amazonaws.com/placement_pins/Z7OKWXRAGSIHPKIZ,0.0
AWRRC2TKRGVY4,35.712779,139.698047,active,高田馬場３丁目住宅,東京都新宿区高田馬場3-25-27,"",15.0,true,true,6,scooter,0,"",4,9,6,standard,https://limebike-web-public-assets.s3.us-west-1.amazonaws.com/placement_pins/GRWCR37ISQABO6MJ,0.0
7HVYR4DFWADZC,35.698897,139.61091,active,レジデンスミツオ 202,東京都杉並区南荻窪2-22-14レジデンスミツオ,"",25.0,true,true,3,scooter,5,gr,5,10,10,standard,https://limebike-web-public-assets.s3.us-west-1.amazonaws.com/placement_pins/XZY3IAGAKTGJZLT3,0.034275
6LSZOLMIEZ57Y,35.669096,139.628302,active,下高井戸1丁目住宅 駐車場,東京都杉並区下高井戸1-34-4,"",15.0,true,true,1,scooter,0,"",3,8,6,standard,https://limebike-web-public-assets.s3.us-west-1.amazonaws.com/placement_pins/OYJ2IGO5TUTT3YOA,0.0
FCQODQK6V2VT2,35.598405,139.67974,active,世田谷区奥沢１丁目個人宅,東京都世田谷区奥沢1-4-14,"",20.0,true,true,5,scooter,5,gr,5,8,8,standard,https://limebike-web-public-assets.s3.us-west-1.amazonaws.com/placement_pins/HXBJHPHMMENWD7SW,0.132308
SRFOQ4Y56HVLF,35.662596,139.618594,active,ハイツロングアイランド通路端,東京都世田谷区八幡山2-16-19ハイツロングアイランド,"",15.0,true,true,2,scooter,0,"",3,8,6,standard,https://limebike-web-public-assets.s3.us-west-1.amazonaws.com/placement_pins/CLDG3OY44DYZOSSI,0.124578
32SQFUNDHVFGT,35.61406,139.62347,active,二子玉川 空き地,東京都世田谷区玉川3-28-11,"",15.0,true,true,13,scooter,0,"",14,24,24,standard,https://limebike-web-public-assets.s3.us-west-1.amazonaws.com/placement_pins/DALIOM74TR36PTHJ,0.0
4TKT33QWKNG5G,35.587028,139.707421,active,【三井のリパーク】南馬込5丁目ポート,東京都大田区南馬込5-31-7,"",25.0,true,true,11,scooter,0,"",23,38,38,standard,https://limebike-web-public-assets.s3.us-west-1.amazonaws.com/placement_pins/NQYTUY3NEMAYFERT,0.0
XVO3JQDJ62X33,35.580476,139.675221,active,田園調布南ポート①,東京都大田区田園調布南10-11,"",15.0,true,true,0,scooter,0,"",2,3,3,standard,https://limebike-web-public-assets.s3.us-west-1.amazonaws.com/placement_pins/2RN7DRRWLM6FRXWF,0.0
KMSFW26QSP4FR,35.56005,139.697636,active,多摩川2丁目 自動販売機横,東京都大田区多摩川2-6-3,"",15.0,true,true,3,scooter,0,"",2,3,3,standard,https://limebike-web-public-assets.s3.us-west-1.amazonaws.com/placement_pins/FMMIUW5MTUYJSXDD,0.311445
CAHV34R5CEVNY,35.580093,139.733718,active,大森北６丁目個人宅駐車場,東京都大田区大森北6-5-10,"",15.0,true,true,4,scooter,0,"",2,4,3,standard,https://limebike-web-public-assets.s3.us-west-1.amazonaws.com/placement_pins/3FT7HK45ORNKBUCZ,0.0
MENSMH34LAFKQ,35.588822,139.679123,active,南雪谷２丁目個人宅,東京都大田区南雪谷2-20-9,"",15.0,true,true,3,scooter,0,"",2,3,3,standard,https://limebike-web-public-assets.s3.us-west-1.amazonaws.com/placement_pins/CHEEEQPLDGDIXZM7,0.0
DQSYEVPD6M5B4,35.581193,139.67454,active,田園調布南ポート②,東京都大田区田園調布南11-3,"",15.0,true,true,2,scooter,0,"",2,3,3,standard,https://limebike-web-public-assets.s3.us-west-1.amazonaws.com/placement_pins/7MILORDU2NE2PA2X,0.0
M364VJKGNONBS,35.716911,139.652803,active,大和町２丁目 個人宅建物横スペース,東京都中野区大和町2-7-12,"",15.0,true,true,2,scooter,0,"",2,3,3,standard,https://limebike-web-public-assets.s3.us-west-1.amazonaws.com/placement_pins/HW2AJEK26FQHQNBW,0.0
KWGELLIBZBEQJ,35.711359,139.645886,active,大和町3丁目第二ポート,東京都中野区大和町3-34-4,"",15.0,true,true,0,scooter,0,"",2,3,2,standard,https://limebike-web-public-assets.s3.us-west-1.amazonaws.com/placement_pins/UIWOSZGENXBHW5VQ,0.0
OV3K6TXZO7RUY,35.70984,139.667887,active,カースク中野,東京都中野区中野5-41-8カースク中野,"",15.0,true,true,2,scooter,2,gr,2,3,3,standard,https://limebike-web-public-assets.s3.us-west-1.amazonaws.com/placement_pins/CBVKFUT3NTYMZZJR,1.770467
VW75RUVVSDU4D,35.703279,139.767937,active,コンシェリア御茶ノ水 正面玄関横,東京都文京区湯島3-1-18コンシェリア御茶ノ水,"",30.0,true,true,2,scooter,0,"",4,6,6,standard,https://limebike-web-public-assets.s3.us-west-1.amazonaws.com/placement_pins/OAOEZ7YCORTOEJKD,1.228703
UCD6R6WBVBD74,35.726434,139.70219,active,レガリアスパシエ目白 駐車場奥,東京都豊島区西池袋4-1-7,"",15.0,true,true,5,scooter,4,gr,4,6,6,standard,https://limebike-web-public-assets.s3.us-west-1.amazonaws.com/placement_pins/PL2VB6JTWLO5FSBQ,0.06644
INMW3QCZM7XU3,35.72797,139.825627,active,ランドリー横スペース,東京都墨田区東向島6-63-11,"",15.0,true,true,3,scooter,0,"",5,8,8,standard,https://limebike-web-public-assets.s3.us-west-1.amazonaws.com/placement_pins/LCBNH2ZAGGOVOEOA,0.0
DMS77WTPOWYGD,35.609747,139.675431,active,緑が丘２丁目個人宅駐車場脇,東京都目黒区緑が丘2-3-8,"",15.0,true,true,5,scooter,1,golden,6,11,10,standard,https://limebike-web-public-assets.s3.us-west-1.amazonaws.com/placement_pins/W2OEIF2UNHOERIWC,2.236942
WSILKE7VICV7F,35.740617,139.647382,active,練馬４丁目個人宅 横スペース,東京都練馬区練馬4-9-2,"",15.0,true,true,3,scooter,0,"",6,10,10,standard,https://limebike-web-public-assets.s3.us-west-1.amazonaws.com/placement_pins/EMBP7EBAR2Z7LR4B,0.0
IGVUBMUYYJHHF,35.682803,139.826834,active,山東ビル紫庭マンション,東京都江東区北砂2-15-31,"",20.0,true,true,11,scooter,0,"",7,12,10,standard,https://limebike-web-public-assets.s3.us-west-1.amazonaws.com/placement_pins/NNPXQICWYOKTKGE6,0.0
VLQZL3OQWMO5W,35.660728,139.779096,active,月島マンション駐車場,東京都中央区月島3-31-7月島マンション,"",50.0,true,true,0,scooter,0,"",15,26,20,standard,https://limebike-web-public-assets.s3.us-west-1.amazonaws.com/placement_pins/AJROBOGC4RTUHAMJ,0.0
4XBEBLNAS4RX7,35.62488,139.73374,active,アンソン御殿山III,東京都品川区北品川6-6-15,"",15.0,true,true,10,scooter,5,gr,5,22,20,standard,https://limebike-web-public-assets.s3.us-west-1.amazonaws.com/placement_pins/A35R6IP7TJOZAAX6,0.061038
AZWV5SLFMC5ZL,35.707756,139.769231,active,湯島３丁目,東京都文京区湯島3-32-13,"",15.0,true,true,7,scooter,10,gr,10,30,25,standard,https://limebike-web-public-assets.s3.us-west-1.amazonaws.com/placement_pins/7XIMOJGOADPZXGF6,1.329102
WCYBR3LAMGBH2,35.710613,139.647403,active,大和町3丁目個人宅ポート,東京都中野区大和町3-20-6,"",15.0,true,true,0,scooter,0,"",2,3,3,standard,https://limebike-web-public-assets.s3.us-west-1.amazonaws.com/placement_pins/QKYDT4LDSEVXQBWH,4.86504
YKDCILMWZLHOT,35.70241,139.702366,active,GSハウス 駐車場,東京都新宿区百人町2-1-47,"",20.0,true,true,1,scooter,0,"",6,10,10,standard,https://limebike-web-public-assets.s3.us-west-1.amazonaws.com/placement_pins/KWMU4I5PVTHYL4IY,0.20439
55YSM763WE4BI,35.71125,139.69456,active,voyage,東京都新宿区高田馬場3-46-11,"",15.0,true,true,2,scooter,0,"",4,7,7,standard,https://limebike-web-public-assets.s3.us-west-1.amazonaws.com/placement_pins/HD3J63JIU4HKUX2X,0.0
Y62TOIX5ZLBGM,35.709421,139.61656,active,ライブ清水,東京都杉並区清水1-12-16ライブ清水,"",15.0,true,true,5,scooter,0,"",5,8,8,standard,https://limebike-web-public-assets.s3.us-west-1.amazonaws.com/placement_pins/KWVZSVODZNREJRNH,0.0
JE6PNHK6J7K2B,35.688087,139.637052,active,成田東２丁目ポート,東京都杉並区成田東2-25-16,"",15.0,true,true,3,scooter,0,"",2,3,3,standard,https://limebike-web-public-assets.s3.us-west-1.amazonaws.com/placement_pins/GEKM4KQY2E3III66,0.0
2AROC6EQESXJH,35.659212,139.663055,active,リーヴェルガーデン下北沢リリオ エントランス前,東京都世田谷区代田5-2-11,"",15.0,true,true,0,scooter,0,"",2,3,3,standard,https://limebike-web-public-assets.s3.us-west-1.amazonaws.com/placement_pins/QQMBD3POKE4C25H7,4.00535
COFRSWUZOJLOY,35.62067,139.64457,active,世田谷区中町,東京都世田谷区中町5-8-5,"",15.0,true,true,2,scooter,0,"",5,8,8,standard,https://limebike-web-public-assets.s3.us-west-1.amazonaws.com/placement_pins/M2DF6XATSEAKWVLR,0.0
F7B7UGTZ5YH5Y,35.723953,139.799168,active,東鴻ビル,東京都台東区東浅草2-9-7,"",15.0,true,true,0,scooter,0,"",3,4,4,standard,https://limebike-web-public-assets.s3.us-west-1.amazonaws.com/placement_pins/ZH4E3ZD5BWV4YQEJ,0.0
BC3FUJX4SIWDA,35.716151,139.781823,active,寅ホテル,東京都台東区北上野1-4-4,"",15.0,true,true,1,scooter,0,"",2,3,3,standard,https://limebike-web-public-assets.s3.us-west-1.amazonaws.com/placement_pins/RUE32KUBFM7VSGMS,0.0
CYPS2Q3ZI7UF5,35.556594,139.715118,active,ハーモニーレジデンス蒲田アートヴィラ 駐車場脇,東京都大田区蒲田本町1-9-7,"",30.0,true,true,2,scooter,0,"",5,8,8,standard,https://limebike-web-public-assets.s3.us-west-1.amazonaws.com/placement_pins/7MT6VNHRZLJIEF3H,0.0
UT2UYMIGCIIME,35.552034,139.725205,active,アルカディア 正面,東京都大田区萩中1-3-25,"",15.0,true,true,5,scooter,0,"",3,5,5,standard,https://limebike-web-public-assets.s3.us-west-1.amazonaws.com/placement_pins/FIEWR5QBVDA7N5U2,0.5088
KNVUNAOEURGRN,35.569573,139.7114,active,ファミーユ村石,東京都大田区西蒲田3-8-12,"",15.0,true,true,0,scooter,0,"",4,7,7,standard,https://limebike-web-public-assets.s3.us-west-1.amazonaws.com/placement_pins/KDOI3YDVCURSGNPB,0.0
QW36W7TETFAQD,35.70564,139.67508,active,メゾン神山,東京都中野区中野1-41,"",15.0,true,true,9,scooter,0,"",8,14,14,standard,https://limebike-web-public-assets.s3.us-west-1.amazonaws.com/placement_pins/ADMPDVHYKQMBT7TA,0.0
A7L4HIUN4QVLY,35.695686,139.661387,active,中野区本町6丁目ポート,東京都中野区本町6-40-8,"",15.0,true,true,0,scooter,0,"",3,4,4,standard,https://limebike-web-public-assets.s3.us-west-1.amazonaws.com/placement_pins/WRPVRJJSDFZ66PZL,0.0
NSKZZ77ADUG2Y,35.626737,139.727246,active,パラカ東五反田第３駐車場脇,東京都品川区東五反田1-3パラカ東五反田第3,"",15.0,true,true,0,scooter,0,"",4,7,7,standard,https://limebike-web-public-assets.s3.us-west-1.amazonaws.com/placement_pins/MAV6IRJ2K2HOBEGU,0.0
KPCJ5V23FMJJI,35.613024,139.725126,active,西品川２丁目個人宅,東京都品川区西品川2-10-13,"",15.0,true,true,2,scooter,0,"",3,5,5,standard,https://limebike-web-public-assets.s3.us-west-1.amazonaws.com/placement_pins/IS2JVUCYQ34KO4TF,0.0
TIMGMHQDCJ6PZ,35.736289,139.712745,active,パークホーム池袋 階段横,東京都豊島区池袋1-10-7,"",15.0,true,true,6,scooter,0,"",7,12,12,standard,https://limebike-web-public-assets.s3.us-west-1.amazonaws.com/placement_pins/QGMINKS526A5A5PK,2.104456
OZ7ACB3GUMTNM,35.736055,139.730571,active,巣鴨4丁目ポート,東京都豊島区巣鴨4-4-5,"",15.0,true,true,1,scooter,0,"",3,5,5,standard,https://limebike-web-public-assets.s3.us-west-1.amazonaws.com/placement_pins/3IXP22TI6K37754U,0.0
U4NSK4RP3JFBI,35.727507,139.822576,active,マハロテラス東向島,東京都墨田区東向島5-23-8,"",15.0,true,true,8,scooter,0,"",6,10,10,standard,https://limebike-web-public-assets.s3.us-west-1.amazonaws.com/placement_pins/5OS34B252GYMPLII,0.0
QXBHERMGY75CR,35.656025,139.689637,active,マリオン駒場 側面,東京都目黒区駒場1-3-7MullionKomaba,"",15.0,true,true,4,scooter,0,"",6,10,10,standard,https://limebike-web-public-assets.s3.us-west-1.amazonaws.com/placement_pins/CBTETG6NGRMVEZDK,0.10185
JFD5HHWGN4FGV,35.725309,139.728743,active,アイビー新大塚バイク駐輪場,東京都文京区大塚5-13-14アイビー新大塚,"",15.0,true,true,9,scooter,6,gr,6,10,10,standard,https://limebike-web-public-assets.s3.us-west-1.amazonaws.com/placement_pins/LXHN7GUDHQSMRLOO,1.15566
U2SDTXOYF5LSY,35.729718,139.678307,active,第２東長崎マイコーポ前駐車場 93,東京都豊島区南長崎6-7-10第二東長崎マイコーポ,"",15.0,true,true,8,scooter,0,"",5,8,8,standard,https://limebike-web-public-assets.s3.us-west-1.amazonaws.com/placement_pins/M2O346SJMVGHIRUF,0.0
TISB4PPLBJYPQ,35.736588,139.731116,active,エフォートM駐車場2,東京都豊島区巣鴨4-20-11,"",15.0,true,true,0,scooter,0,"",5,8,8,standard,https://limebike-web-public-assets.s3.us-west-1.amazonaws.com/placement_pins/UYUG7OSPEXCNCIQO,0.119592
TOCVW4PQHT6EO,35.649502,139.754248,active,PREMIUM CUBE 三田入口横,東京都港区芝1-13-10PremiumCube三田,"",50.0,true,true,5,scooter,3,gr,3,5,5,standard,https://limebike-web-public-assets.s3.us-west-1.amazonaws.com/placement_pins/S7EKHB23NGKGRYTW,3.477332
PSJMYFY7KU52Y,35.680892,139.701438,active,モント代々木,東京都渋谷区代々木1-18-8,"",15.0,true,true,4,scooter,1,golden,5,8,8,standard,https://limebike-web-public-assets.s3.us-west-1.amazonaws.com/placement_pins/PV6MXRBP7PFOEWTL,0.616952
A3Q3ZUWMNVVFU,35.699316,139.724461,active,【三井のリパーク】原町2丁目ポート,東京都新宿区原町2--38-1,"",15.0,true,true,4,scooter,3,gr,3,5,5,standard,https://limebike-web-public-assets.s3.us-west-1.amazonaws.com/placement_pins/4GZFUTVDOC6V7BBG,2.670274
XI2EWJ7EXG5LM,35.693195,139.716941,active,新宿区富久町3丁目個人宅,東京都新宿区富久町3-14,"",15.0,true,true,2,scooter,2,gr,2,3,3,standard,https://limebike-web-public-assets.s3.us-west-1.amazonaws.com/placement_pins/UY24B5GQYXGBEF3Y,0.599278
SBZAPFQHRMWTV,35.706103,139.729642,active,天神町81-7個人宅,東京都新宿区天神町-81−7,"",15.0,true,true,5,scooter,4,gr,4,6,6,standard,https://limebike-web-public-assets.s3.us-west-1.amazonaws.com/placement_pins/UYJTJNPYKWO33YXC,0.306916
GDFDYLOXAQHJL,35.683372,139.653381,active,ウェルスクエアイズム方南町,東京都杉並区堀ノ内1-6-11,"",15.0,true,true,5,scooter,0,"",4,6,6,standard,https://limebike-web-public-assets.s3.us-west-1.amazonaws.com/placement_pins/Z3EEKOVLNEBDQ2K7,0.152708
WSDRTB6M3Q7SW,35.679443,139.645448,active,ヴェルデ丑丸,東京都杉並区和泉3-37-16,"",15.0,true,true,6,scooter,2,gr,2,8,8,standard,https://limebike-web-public-assets.s3.us-west-1.amazonaws.com/placement_pins/WDKXYVN4TZIWNVYV,2.249243
Z62ZLMKJVJC43,35.669806,139.624451,active,ベルシャトー上北沢,東京都世田谷区上北沢4-15-7ベルシャトー上北沢,"",20.0,true,true,8,scooter,8,gr,8,14,14,standard,https://limebike-web-public-assets.s3.us-west-1.amazonaws.com/placement_pins/FBPKMKYKJW7C2ZEG,0.108592
X66OG4Y7PFQR7,35.722065,139.791342,active,セイワビル,東京都台東区千束3-17-4,"",45.0,true,true,1,scooter,0,"",2,3,3,standard,https://limebike-web-public-assets.s3.us-west-1.amazonaws.com/placement_pins/QMYJL7IS2Z4F4JGC,1.12398
JV5SHRVZXU3FZ,35.55866,139.722278,active,蒲田4丁目倉庫横,東京都大田区蒲田4-45-3,"",15.0,true,true,0,scooter,2,gr,2,3,3,standard,https://limebike-web-public-assets.s3.us-west-1.amazonaws.com/placement_pins/E7MKOIQL3NI3GH5M,0.0
TFCDK5DOP7US3,35.5552,139.727066,active,南蒲田三丁目駐車場 駐車場スペース内,東京都大田区南蒲田3-1-10,"",15.0,true,true,3,scooter,0,"",5,8,8,standard,https://limebike-web-public-assets.s3.us-west-1.amazonaws.com/placement_pins/RWPG336EPQU3CD3S,0.0
GGRZ4JE3JDIL4,35.682251,139.663076,active,中野区南台5丁目個人宅,東京都中野区南台5-22-24,"",15.0,true,true,1,scooter,2,gr,2,3,3,standard,https://limebike-web-public-assets.s3.us-west-1.amazonaws.com/placement_pins/WEIHTA6W36ZBZBVH,1.121278
3PAFNPK6UINSN,35.70094,139.670196,active,中野区中央4丁目個人宅ポート,東京都中野区中央4-36−4,"",15.0,true,true,4,scooter,0,"",1,4,4,standard,https://limebike-web-public-assets.s3.us-west-1.amazonaws.com/placement_pins/YYWKHUHG7SLEVCZT,0.0
D2YNEXC4VUZMV,35.711605,139.64871,active,大和町3丁目第三ポート,東京都中野区大和町3-8-18,"",15.0,true,true,2,scooter,2,gr,2,3,3,standard,https://limebike-web-public-assets.s3.us-west-1.amazonaws.com/placement_pins/FQYC5YV3ZEYKFBMS,1.683176
JK4V5LSLAQCXK,35.695162,139.6811,active,朝日が丘児童館隣ポート,東京都中野区本町2-32-14,"",15.0,true,true,0,scooter,0,"",2,3,3,standard,https://limebike-web-public-assets.s3.us-west-1.amazonaws.com/placement_pins/RRQVNBMEUBO66QLC,1.320841
RGTPSKSJTGK6E,35.74435,139.693964,active,板橋区幸町個人宅ポート,東京都板橋区幸町60-6,"",15.0,true,true,2,scooter,2,gr,2,3,3,standard,https://limebike-web-public-assets.s3.us-west-1.amazonaws.com/placement_pins/VVDOE7JLAPUJKENS,0.586609
2ZNITIKJHKHYH,35.744735,139.708763,active,RASIS 大山-山手通り,東京都板橋区大山金井町6-5,"",30.0,true,true,4,scooter,3,gr,3,5,5,standard,https://limebike-web-public-assets.s3.us-west-1.amazonaws.com/placement_pins/6U4OZ5MZIINH4QXM,0.982745
OMBW3BMM74GR7,35.752733,139.718026,active,クリアスタイル板橋 バイク置き場スペース,東京都板橋区板橋4-54-9,"",15.0,true,true,7,scooter,5,gr,5,8,8,standard,https://limebike-web-public-assets.s3.us-west-1.amazonaws.com/placement_pins/C7HZLSCS6WCG66TS,0.0
KATKITMNRWJPQ,35.59382,139.736133,active,【三井のリパーク】南大井4丁目ポート,東京都品川区南大井4-17,"",20.0,true,true,16,scooter,10,gr,10,16,16,standard,https://limebike-web-public-assets.s3.us-west-1.amazonaws.com/placement_pins/NDD3VG6LQRWWOT26,0.115804
5FKAIXZ52DZHA,35.625057,139.731118,active,PREMIUM CUBE 品川大崎,東京都品川区東五反田3-21-7プレミアムキューブ品川大崎,"",40.0,true,true,3,scooter,4,gr,4,5,5,standard,https://limebike-web-public-assets.s3.us-west-1.amazonaws.com/placement_pins/CMUW4IHSTG27M4QY,0.0
BWJVVARBRPLQ4,35.614309,139.72801,active,THE PREMIUM CUBE G 大崎,東京都品川区西品川2-2-25,"",15.0,true,true,4,scooter,6,gr,6,8,8,standard,https://limebike-web-public-assets.s3.us-west-1.amazonaws.com/placement_pins/BELWVAK73IFUBV2N,0.0
CXWBCO7JRJ65R,35.603149,139.731926,active,大井３丁目駐車場 側面,東京都品川区大井3-4-12,"",15.0,true,true,4,scooter,6,gr,6,11,11,standard,https://limebike-web-public-assets.s3.us-west-1.amazonaws.com/placement_pins/AOKGGWGW4CAZHZOB,0.174523
47LOHBYY5GKOH,35.603106,139.728406,active,光学山中駐車場 側面,東京都品川区大井3-9-3,"",15.0,true,true,1,scooter,0,"",4,7,7,standard,https://limebike-web-public-assets.s3.us-west-1.amazonaws.com/placement_pins/R5DZLCCC42NVOXCX,0.0
